[{"lat": 45.2356334, "lng": 5.750961, "name": "Col de Vence", "type": "col", "ele": "782"}, {"lat": 44.7237892, "lng": 5.6774167, "name": "Col de La Croix-Haute", "type": "col", "ele": "1183"}, {"lat": 43.3162935, "lng": 5.6591747, "name": "Col de l'Espigoulier", "type": "col", "ele": "725"}, {"lat": 46.2580068, "lng": 10.5818471, "name": "Passo del Tonale", "type": "col", "ele": "1883"}, {"lat": 46.1306459, "lng": 5.5094275, "name": "Col de Ceignes", "type": "col", "ele": "646"}, {"lat": 47.0811877, "lng": 12.8425858, "name": "Hochtor", "type": "col", "ele": "2504"}, {"lat": 47.1167877, "lng": 12.8239057, "name": "Col", "type": "col", "ele": "2428"}, {"lat": 45.1402937, "lng": 5.6732584, "name": "Col de Comboire", "type": "col", "ele": "432"}, {"lat": 45.0874676, "lng": 5.8488274, "name": "Col Luitel", "type": "col", "ele": "1262"}, {"lat": 45.3652066, "lng": 5.6211649, "name": "Col de la Croix Bayard", "type": "col", "ele": "390"}, {"lat": 43.8654587, "lng": 6.4640039, "name": "Col des L\u00e8ques", "type": "col", "ele": "1148"}, {"lat": 46.4042798, "lng": 11.6089903, "name": "Passo di Costalunga - Karerpass", "type": "col", "ele": "1745"}, {"lat": 47.372855, "lng": 7.1413531, "name": "Col de la Croix", "type": "col", "ele": "789"}, {"lat": 46.6035575, "lng": 12.9451319, "name": "Passo di Monte Croce Carnico / Pl\u00f6ckenpass / Pas di Mont di Cr\u00f4s", "type": "col", "ele": "1360"}, {"lat": 45.2394185, "lng": 5.9512846, "name": "Col des Mouilles", "type": "col", "ele": "1020"}, {"lat": 45.8084626, "lng": 6.244757, "name": "Col de la Forclaz", "type": "col", "ele": "1147"}, {"lat": 45.873176, "lng": 6.2120184, "name": "Col de Bluffy", "type": "col", "ele": "631"}, {"lat": 43.6818502, "lng": 6.8131608, "name": "Col de la L\u00e8que", "type": "col", "ele": "695"}, {"lat": 43.4949621, "lng": 6.9037401, "name": "Col de la Cadi\u00e8re", "type": "col", "ele": "241"}, {"lat": 43.4805043, "lng": 6.9116979, "name": "Col Notre-Dame", "type": "col", "ele": "324"}, {"lat": 47.3601775, "lng": 6.5719098, "name": "Col de Ferri\u00e8re", "type": "col", "ele": "593"}, {"lat": 47.3111319, "lng": 12.218901, "name": "Filzenscharte", "type": "col", "ele": "1686"}, {"lat": 43.496459, "lng": 6.917555, "name": "Col du Trayas", "type": "col", "ele": "245"}, {"lat": 43.4981962, "lng": 6.922189, "name": "Col des Monges", "type": "col", "ele": "235"}, {"lat": 43.4948756, "lng": 6.9277139, "name": "Col de Th\u00e9oule", "type": "col", "ele": "123"}, {"lat": 43.4700294, "lng": 6.9087651, "name": "Col des Lentisques", "type": "col", "ele": "263"}, {"lat": 43.4613105, "lng": 6.9067006, "name": "Col de l'\u00c9v\u00eaque", "type": "col", "ele": "159"}, {"lat": 43.4566132, "lng": 6.8687752, "name": "Col Belle Barbe", "type": "col", "ele": ""}, {"lat": 46.5111319, "lng": 7.77018, "name": "Hoht\u00fcrli", "type": "col", "ele": "2778"}, {"lat": 47.2639846, "lng": 8.7129321, "name": "T\u00fcrli", "type": "col", "ele": "615"}, {"lat": 44.1437589, "lng": 11.500387, "name": "Passo del Paretaio", "type": "col", "ele": "880"}, {"lat": 43.7594642, "lng": 6.8612045, "name": "Col de la Sine", "type": "col", "ele": "1108"}, {"lat": 45.2026999, "lng": 6.4446143, "name": "Col du T\u00e9l\u00e9graphe", "type": "col", "ele": "1566"}, {"lat": 46.4559894, "lng": 11.5858858, "name": "Nigerpass - Passo Nigra", "type": "col", "ele": "1690"}, {"lat": 47.488866, "lng": 10.5958471, "name": "Col", "type": "col", "ele": "1053"}, {"lat": 45.8366915, "lng": 10.690258, "name": "Passo di Tremalzo", "type": "col", "ele": "1664"}, {"lat": 45.9082931, "lng": 10.4174094, "name": "Goletto di Cadino", "type": "col", "ele": "1943"}, {"lat": 45.9075303, "lng": 10.4095085, "name": "Passo di Crocedomini", "type": "col", "ele": "1892"}, {"lat": 45.0352314, "lng": 6.4051088, "name": "Col du Lautaret", "type": "col", "ele": "2058"}, {"lat": 43.8450509, "lng": 7.0928506, "name": "Col des Ferres", "type": "col", "ele": "596"}, {"lat": 45.7615643, "lng": 6.5333569, "name": "Col des Saisies", "type": "col", "ele": "1650"}, {"lat": 45.6949054, "lng": 6.6336393, "name": "Col du M\u00e9raillet", "type": "col", "ele": "1605"}, {"lat": 45.6913293, "lng": 6.6906249, "name": "Cormet de Roselend", "type": "col", "ele": "1968"}, {"lat": 46.5383225, "lng": 10.1664242, "name": "Passo Eira", "type": "col", "ele": "2208"}, {"lat": 46.4409411, "lng": 10.0561903, "name": "Passo Forcola di Livigno", "type": "col", "ele": "2315"}, {"lat": 46.4109262, "lng": 10.0276199, "name": "Passo del Bernina", "type": "col", "ele": "2330"}, {"lat": 44.1847553, "lng": 10.8771856, "name": "Valico Masera", "type": "col", "ele": "762"}, {"lat": 44.2093309, "lng": 10.4887546, "name": "Passo delle Radici", "type": "col", "ele": "1527.0"}, {"lat": 45.2274902, "lng": 6.2033309, "name": "Col de la Croix-de-Fer", "type": "col", "ele": "2067"}, {"lat": 46.6397744, "lng": 10.2921855, "name": "Pass dal Fuorn", "type": "col", "ele": "2150"}, {"lat": 43.7753974, "lng": 6.2604073, "name": "Col d'Illoire", "type": "col", "ele": "967"}, {"lat": 46.3534286, "lng": 7.2045971, "name": "Col du Pillon", "type": "col", "ele": "1546"}, {"lat": 44.1729133, "lng": 11.3384155, "name": "Passo della Raticosa", "type": "col", "ele": "968"}, {"lat": 47.482174, "lng": 8.4363804, "name": "Regensberger Pass", "type": "col", "ele": ""}, {"lat": 47.0742812, "lng": 12.6945093, "name": "Obere Glocknerscharte", "type": "col", "ele": "3756"}, {"lat": 44.0294523, "lng": 10.931523, "name": "Passo della Porretta", "type": "col", "ele": "932"}, {"lat": 47.4666111, "lng": 11.3478169, "name": "Col", "type": "col", "ele": "1406"}, {"lat": 44.0767899, "lng": 11.0803228, "name": "Passo del Tabernacolo", "type": "col", "ele": "968"}, {"lat": 46.7789875, "lng": 10.67575, "name": "Schnalser Schartl", "type": "col", "ele": "3127"}, {"lat": 45.2341628, "lng": 5.7257371, "name": "Col de Cl\u00e9menci\u00e8res", "type": "col", "ele": "620"}, {"lat": 43.7829527, "lng": 11.6016534, "name": "Passo della Consuma", "type": "col", "ele": "1055"}, {"lat": 45.8738402, "lng": 10.9066186, "name": "Passo San Giovanni", "type": "col", "ele": "272"}, {"lat": 46.8396036, "lng": 11.3214724, "name": "Jaufenpass - Passo di Monte Giovo", "type": "col", "ele": "2094"}, {"lat": 46.5817264, "lng": 12.2517572, "name": "Col Sant\u2019Angelo", "type": "col", "ele": "1756"}, {"lat": 45.2728823, "lng": 5.765495, "name": "Col de Palaquit", "type": "col", "ele": "1154"}, {"lat": 46.5701766, "lng": 12.7212058, "name": "Cima Sappada", "type": "col", "ele": "1292"}, {"lat": 46.4825196, "lng": 12.053666, "name": "Passo di Giau", "type": "col", "ele": "2236"}, {"lat": 47.4372839, "lng": 10.1769132, "name": "Riedbergpass", "type": "col", "ele": "1406"}, {"lat": 46.5384859, "lng": 13.0847571, "name": "Forcella di Lius", "type": "col", "ele": "1030"}, {"lat": 46.5018302, "lng": 12.9268442, "name": "Sella del Monte Zoncolan", "type": "col", "ele": "1733"}, {"lat": 46.1543295, "lng": 10.1541791, "name": "Passo dell'Aprica", "type": "col", "ele": "1172"}, {"lat": 46.4980343, "lng": 10.6293266, "name": "Passo del Madriccio", "type": "col", "ele": "3123"}, {"lat": 43.5951168, "lng": 12.235588, "name": "Bocca Trabaria", "type": "col", "ele": "1049"}, {"lat": 45.8261194, "lng": 10.8976256, "name": "Sella Nord Est del Monte Varagna", "type": "col", "ele": ""}, {"lat": 45.6404317, "lng": 10.7545044, "name": "Passo dello Sceriffo", "type": "col", "ele": "745"}, {"lat": 45.8371718, "lng": 10.7443133, "name": "Passo Nota", "type": "col", "ele": "1204"}, {"lat": 45.8391564, "lng": 10.7190376, "name": "Passo dei Gat\u00f2n", "type": "col", "ele": "1632"}, {"lat": 43.8597266, "lng": 11.7444316, "name": "Passo della Calla", "type": "col", "ele": "1296"}, {"lat": 43.9275428, "lng": 11.6780633, "name": "Colla Tre Faggi", "type": "col", "ele": "930"}, {"lat": 46.2985717, "lng": 13.4368903, "name": "Sedlo U\u010dja", "type": "col", "ele": "709"}, {"lat": 46.4314208, "lng": 7.5915266, "name": "Chindbettipass", "type": "col", "ele": "2623"}, {"lat": 45.7713797, "lng": 9.9083534, "name": "Forcellino di Bianzano", "type": "col", "ele": "664"}, {"lat": 45.7637409, "lng": 10.8234399, "name": "Passo Campiano", "type": "col", "ele": "375"}, {"lat": 46.8488288, "lng": 9.8120636, "name": "Parsennfurgga", "type": "col", "ele": "2435"}, {"lat": 46.7605657, "lng": 7.692178, "name": "Multenegg", "type": "col", "ele": "1083"}, {"lat": 44.494031, "lng": 9.2452745, "name": "Colletta di Costafinale", "type": "col", "ele": "1111"}, {"lat": 44.4745973, "lng": 9.2381102, "name": "Passo Larnaia", "type": "col", "ele": "1110"}, {"lat": 45.4349516, "lng": 6.3755223, "name": "Col de la Madeleine", "type": "col", "ele": "1993"}, {"lat": 44.9348923, "lng": 6.50432, "name": "Col de l\u2019Eychauda", "type": "col", "ele": "2425"}, {"lat": 45.4171195, "lng": 7.0308387, "name": "Col de l'Iseran", "type": "col", "ele": "2770"}, {"lat": 45.596434, "lng": 5.9407877, "name": "Col de Saint-Saturnin", "type": "col", "ele": "409"}, {"lat": 47.276007, "lng": 8.5211431, "name": "Albispass", "type": "col", "ele": "790"}, {"lat": 45.6095785, "lng": 10.3614284, "name": "Passo Sant'Eusebio", "type": "col", "ele": "574"}, {"lat": 45.9667186, "lng": 6.3322222, "name": "Col des Gli\u00e8res", "type": "col", "ele": "1440"}, {"lat": 44.8019949, "lng": 9.3132721, "name": "Passo delle Tre Strade", "type": "col", "ele": "1101"}, {"lat": 44.7972866, "lng": 9.3282965, "name": "Passo del Penice", "type": "col", "ele": "1149"}, {"lat": 45.4952501, "lng": 5.8963055, "name": "Col de la Gorgeat", "type": "col", "ele": "1433"}, {"lat": 46.5138595, "lng": 11.8723674, "name": "Passo Campolongo", "type": "col", "ele": "1875"}, {"lat": 47.3114046, "lng": 10.4289447, "name": "Balschtesattel", "type": "col", "ele": "2226"}, {"lat": 47.3163786, "lng": 10.449578, "name": "Luxnacher Sattel", "type": "col", "ele": "2114"}, {"lat": 47.3074762, "lng": 10.376814, "name": "Schafschartl", "type": "col", "ele": "2310"}, {"lat": 47.3072474, "lng": 10.3571779, "name": "Krottenkopfscharte", "type": "col", "ele": "2350"}, {"lat": 47.292234, "lng": 10.3586573, "name": "Gumpensattel", "type": "col", "ele": "2262"}, {"lat": 43.3732701, "lng": 6.5962339, "name": "Col du Gratteloup", "type": "col", "ele": "225"}, {"lat": 47.3574351, "lng": 10.3567434, "name": "Alpelsattel", "type": "col", "ele": "1778"}, {"lat": 45.3865786, "lng": 5.8190917, "name": "Col du Fr\u00eat", "type": "col", "ele": "1740"}, {"lat": 44.0454814, "lng": 12.2133845, "name": "Cima Dante", "type": "col", "ele": "394"}, {"lat": 45.638634, "lng": 6.11437, "name": "Col de la Cochette", "type": "col", "ele": "1694"}, {"lat": 44.9188205, "lng": 9.1006459, "name": "Passo Crocetta", "type": "col", "ele": "533"}, {"lat": 43.4727347, "lng": 6.8664741, "name": "Col du Perthus", "type": "col", "ele": "190"}, {"lat": 43.5045491, "lng": 6.8639863, "name": "Baisse Violette", "type": "col", "ele": "361"}, {"lat": 44.9142977, "lng": 9.2636816, "name": "Passo del Carmine", "type": "col", "ele": "600"}, {"lat": 44.6837628, "lng": 9.216941, "name": "Passo del Giov\u00e0", "type": "col", "ele": "1366"}, {"lat": 44.7740567, "lng": 9.2939406, "name": "Passo Scaparina", "type": "col", "ele": "1108"}, {"lat": 43.5038187, "lng": 6.9348617, "name": "Collet de l'Autel", "type": "col", "ele": "108"}, {"lat": 45.8740181, "lng": 8.8052812, "name": "Passo della Motta Rossa", "type": "col", "ele": "579"}, {"lat": 43.4543703, "lng": 6.9022586, "name": "Col du Cap Roux", "type": "col", "ele": "360"}, {"lat": 43.4700972, "lng": 6.8716224, "name": "Col de Baladou", "type": "col", "ele": "165"}, {"lat": 44.3291133, "lng": 7.7785711, "name": "Col", "type": "col", "ele": ""}, {"lat": 45.3313178, "lng": 6.0269595, "name": "Col de Barioz", "type": "col", "ele": "1040"}, {"lat": 47.2847433, "lng": 12.9696121, "name": "Rauriserh\u00f6he", "type": "col", "ele": "978"}, {"lat": 44.1465987, "lng": 10.0243816, "name": "Foce del Cucco", "type": "col", "ele": "520"}, {"lat": 45.441807, "lng": 5.9188626, "name": "Col de l'Alpette", "type": "col", "ele": "1533"}, {"lat": 43.5025277, "lng": 6.8838566, "name": "Col des Trois Termes", "type": "col", "ele": "303"}, {"lat": 45.5043252, "lng": 6.3808773, "name": "Col des Frettes", "type": "col", "ele": "2375"}, {"lat": 47.1994309, "lng": 11.7158942, "name": "Geiseljoch", "type": "col", "ele": "2292"}, {"lat": 47.2993181, "lng": 11.765244, "name": "Loassattel", "type": "col", "ele": "1675"}, {"lat": 46.7140113, "lng": 11.5042772, "name": "Fortschellscharte - Forcella di San Cassiano", "type": "col", "ele": "2299"}, {"lat": 47.4281749, "lng": 11.4313516, "name": "Hochalmsattel", "type": "col", "ele": "1803"}, {"lat": 46.6591315, "lng": 6.3481321, "name": "Col de P\u00e9tra F\u00e9lix", "type": "col", "ele": "1144"}, {"lat": 45.060438, "lng": 6.074766, "name": "Col de Maronne", "type": "col", "ele": "1697"}, {"lat": 44.9986, "lng": 6.2027482, "name": "Col du Jandri", "type": "col", "ele": "3150"}, {"lat": 44.3276679, "lng": 7.845177, "name": "Colla della Giacobba", "type": "col", "ele": "723"}, {"lat": 44.3261827, "lng": 7.8477234, "name": "Col", "type": "col", "ele": "720"}, {"lat": 46.2963002, "lng": 11.786321, "name": "Passo Rolle", "type": "col", "ele": "1971"}, {"lat": 47.2138031, "lng": 11.0243734, "name": "K\u00fchtaisattel", "type": "col", "ele": "2017"}, {"lat": 43.8003843, "lng": 7.2927777, "name": "Col de Ch\u00e2teauneuf", "type": "col", "ele": "627"}, {"lat": 46.4157841, "lng": 10.0114771, "name": "Berninapass", "type": "col", "ele": "2235"}, {"lat": 45.9195501, "lng": 11.2062488, "name": "Passo Sommo", "type": "col", "ele": "1341"}, {"lat": 45.9497254, "lng": 11.2072549, "name": "Valico della Fricca", "type": "col", "ele": "1110"}, {"lat": 44.0723968, "lng": 11.4855584, "name": "Passo della Sambuca", "type": "col", "ele": "1080"}, {"lat": 43.4428328, "lng": 11.5065058, "name": "Passo di Monte Luco", "type": "col", "ele": "794"}, {"lat": 44.462744, "lng": 8.9521667, "name": "Valico di Trensasco", "type": "col", "ele": "392"}, {"lat": 47.4534883, "lng": 10.7315885, "name": "Col", "type": "col", "ele": "1030"}, {"lat": 46.3999357, "lng": 9.6958071, "name": "Malojapass", "type": "col", "ele": "1815"}, {"lat": 47.2932319, "lng": 10.2426985, "name": "Col", "type": "col", "ele": "1758"}, {"lat": 47.3312686, "lng": 10.1933969, "name": "Kuhgehrensattel", "type": "col", "ele": "1860"}, {"lat": 47.2767011, "lng": 10.1741755, "name": "Col", "type": "col", "ele": ""}, {"lat": 47.2762288, "lng": 10.2019419, "name": "Schrofenpass", "type": "col", "ele": "1692"}, {"lat": 47.2717823, "lng": 10.2109067, "name": "Salzb\u00fccheljoch", "type": "col", "ele": "1787"}, {"lat": 43.3544129, "lng": 11.6466399, "name": "Col", "type": "col", "ele": "590"}, {"lat": 47.443152, "lng": 11.0503735, "name": "Hupfleitenjoch", "type": "col", "ele": "1750"}, {"lat": 47.4180169, "lng": 10.3281124, "name": "Gei\u00dffu\u00dfsattel", "type": "col", "ele": "1940"}, {"lat": 45.6337627, "lng": 10.1439104, "name": "Valico la Croce", "type": "col", "ele": "548"}, {"lat": 47.2814554, "lng": 8.0875615, "name": "B\u00e4nkelloch", "type": "col", "ele": "623"}, {"lat": 43.814112, "lng": 7.4462791, "name": "Col des Banquettes", "type": "col", "ele": "744"}, {"lat": 45.5810357, "lng": 5.8230966, "name": "Col de l'\u00c9pine", "type": "col", "ele": "987"}, {"lat": 45.5957058, "lng": 5.8138055, "name": "Pas du Li\u00e8vre", "type": "col", "ele": "1061"}, {"lat": 45.7128347, "lng": 10.8611615, "name": "Cavallo di Novezza", "type": "col", "ele": "1433"}, {"lat": 45.81568, "lng": 10.905375, "name": "Bocca Paltrane", "type": "col", "ele": "1831"}, {"lat": 43.8846582, "lng": 7.5024991, "name": "Col de Vescavo", "type": "col", "ele": "477"}, {"lat": 45.7258961, "lng": 6.4427025, "name": "Col de la Forclaz", "type": "col", "ele": "881"}, {"lat": 45.7913568, "lng": 6.330855, "name": "Col des Ess\u00e9rieux", "type": "col", "ele": "755"}, {"lat": 45.8243026, "lng": 6.334281, "name": "Col du Marais", "type": "col", "ele": "843"}, {"lat": 47.4027307, "lng": 9.4110952, "name": "Waldegg", "type": "col", "ele": "986"}, {"lat": 45.7831372, "lng": 10.9122391, "name": "Passo di San Valentino", "type": "col", "ele": "1314"}, {"lat": 45.7675511, "lng": 10.8654726, "name": "Passo Tratto Spino", "type": "col", "ele": "1760"}, {"lat": 45.7843151, "lng": 11.186654, "name": "Porte del Pasubio", "type": "col", "ele": "1928"}, {"lat": 45.8587799, "lng": 10.6899405, "name": "Bocca Cas\u00e8t", "type": "col", "ele": "1603"}, {"lat": 44.3040839, "lng": 10.2171298, "name": "Passo del Cerreto", "type": "col", "ele": "1243"}, {"lat": 45.407597, "lng": 6.6026501, "name": "Col de la Loze", "type": "col", "ele": "2304"}, {"lat": 46.1106685, "lng": 8.8454537, "name": "Passo dell'Alpe di Neggia", "type": "col", "ele": "1395"}, {"lat": 44.6138218, "lng": 6.0811415, "name": "Col Bayard", "type": "col", "ele": "1246"}, {"lat": 46.0618045, "lng": 11.8300803, "name": "Passo Croce d'Aune", "type": "col", "ele": "1011"}, {"lat": 44.5880078, "lng": 6.3084456, "name": "Col de la Gardette", "type": "col", "ele": "2125"}, {"lat": 43.8635123, "lng": 5.7789315, "name": "Col de la Mort d'Imbert", "type": "col", "ele": "591"}, {"lat": 45.9566147, "lng": 11.328594, "name": "Passo Vezzena", "type": "col", "ele": "1402"}, {"lat": 46.2365722, "lng": 11.9760487, "name": "Forcella Aurine", "type": "col", "ele": "1299"}, {"lat": 45.6287024, "lng": 10.7558029, "name": "Passo di Lumini", "type": "col", "ele": "695"}, {"lat": 45.7718194, "lng": 6.1316374, "name": "Col de Leschaux", "type": "col", "ele": "901"}, {"lat": 45.5209914, "lng": 6.0610621, "name": "Col du Mont", "type": "col", "ele": "1000"}, {"lat": 46.4207005, "lng": 12.1045012, "name": "Passo Staulanza", "type": "col", "ele": "1766"}, {"lat": 46.119499, "lng": 6.1716169, "name": "Col de la Croisette", "type": "col", "ele": "1175"}, {"lat": 44.4954192, "lng": 9.1786606, "name": "Passo del Portello", "type": "col", "ele": "1051"}, {"lat": 47.397773, "lng": 10.2010341, "name": "Col", "type": "col", "ele": ""}, {"lat": 45.7585494, "lng": 10.8959216, "name": "Passo Pozza della Cola", "type": "col", "ele": "1289"}, {"lat": 43.8851308, "lng": 7.3273824, "name": "Col du Savel", "type": "col", "ele": "980"}, {"lat": 45.7250346, "lng": 6.0342354, "name": "Creux du Pr\u00e9-Bernard", "type": "col", "ele": "1305"}, {"lat": 44.9590948, "lng": 6.882543, "name": "Colle del Sestriere", "type": "col", "ele": "2035"}, {"lat": 45.7919706, "lng": 10.4652696, "name": "Passo del Baremone", "type": "col", "ele": "1406"}, {"lat": 45.7926763, "lng": 10.4383047, "name": "Passo della Spina", "type": "col", "ele": "1525"}, {"lat": 46.1767418, "lng": 11.0531348, "name": "Passo Santel", "type": "col", "ele": "1040"}, {"lat": 46.0245195, "lng": 8.6259338, "name": "Col", "type": "col", "ele": ""}, {"lat": 45.9233593, "lng": 10.9254245, "name": "Passo Due Sassi", "type": "col", "ele": "1108"}, {"lat": 44.6010559, "lng": 6.2201426, "name": "Col de Moissi\u00e8re", "type": "col", "ele": "1573"}, {"lat": 47.433821, "lng": 8.0604612, "name": "Staffelegg", "type": "col", "ele": "621"}, {"lat": 46.096836, "lng": 11.1457079, "name": "Sella di Val Mistai", "type": "col", "ele": "1025"}, {"lat": 43.94771, "lng": 12.3188, "name": "Passo Siepi", "type": "col", "ele": ""}, {"lat": 45.6667862, "lng": 10.1118594, "name": "Valico di Caposs", "type": "col", "ele": "889"}, {"lat": 46.3970239, "lng": 11.7626566, "name": "Passo delle Selle", "type": "col", "ele": "2530"}, {"lat": 46.4975194, "lng": 11.65362, "name": "J\u00ebuf da Duron - Mahlknechtjoch - Passo Duron", "type": "col", "ele": "2204"}, {"lat": 45.2392027, "lng": 5.5401423, "name": "Col de Montaud", "type": "col", "ele": "1069"}, {"lat": 46.6495006, "lng": 7.3152334, "name": "Kaisereggpass", "type": "col", "ele": "2072"}, {"lat": 45.1676488, "lng": 5.8237277, "name": "Col de la Coche", "type": "col", "ele": "725"}, {"lat": 45.3654644, "lng": 5.8341211, "name": "Col du Cucheron", "type": "col", "ele": "1140"}, {"lat": 47.4509441, "lng": 10.1694465, "name": "Col", "type": "col", "ele": "1629"}, {"lat": 46.0960645, "lng": 9.3655519, "name": "Sella del Legnone", "type": "col", "ele": "1450"}, {"lat": 46.9308751, "lng": 13.3607233, "name": "Riekent\u00f6rl", "type": "col", "ele": "2570"}, {"lat": 46.1479551, "lng": 9.2499301, "name": "Bocchetta di Sant'Anna", "type": "col", "ele": "1206"}, {"lat": 44.0102229, "lng": 7.9520538, "name": "Colle San Bartolomeo", "type": "col", "ele": "625"}, {"lat": 45.5979702, "lng": 10.1772514, "name": "Passo della Forcella", "type": "col", "ele": "310"}, {"lat": 44.051919, "lng": 7.6519901, "name": "Col Linaire", "type": "col", "ele": "1440"}, {"lat": 44.1639927, "lng": 7.6283917, "name": "Col de la Boaire / Colle della Boaria", "type": "col", "ele": "2100"}, {"lat": 44.3676246, "lng": 7.3555252, "name": "Colle di Rosa", "type": "col", "ele": "1185"}, {"lat": 44.5384769, "lng": 7.2041771, "name": "Collet Rusciera", "type": "col", "ele": "2052"}, {"lat": 44.5509525, "lng": 7.1195782, "name": "Colle di Sampeyre", "type": "col", "ele": "2284"}, {"lat": 44.3966848, "lng": 7.1238776, "name": "Colle d'Esischie", "type": "col", "ele": "2370"}, {"lat": 44.404221, "lng": 7.0414636, "name": "Colle del Preit", "type": "col", "ele": "2080"}, {"lat": 44.3879367, "lng": 7.0680399, "name": "Colle Margherina", "type": "col", "ele": "2408"}, {"lat": 43.6825799, "lng": 12.1164075, "name": "Passo di Viamaggio", "type": "col", "ele": "983"}, {"lat": 44.9947679, "lng": 6.8734571, "name": "Col", "type": "col", "ele": ""}, {"lat": 44.9857841, "lng": 6.8702376, "name": "Colletto di Costa Treceira", "type": "col", "ele": "2463"}, {"lat": 45.0371473, "lng": 6.9164799, "name": "Colle Blegier", "type": "col", "ele": "2379"}, {"lat": 45.0703794, "lng": 6.9571413, "name": "Colle dell'Assietta", "type": "col", "ele": "2472"}, {"lat": 45.3871751, "lng": 5.8086913, "name": "Col de L\u00e9chaud", "type": "col", "ele": "1708"}, {"lat": 46.5017654, "lng": 11.8123255, "name": "Forcella Pordoi", "type": "col", "ele": "2848"}, {"lat": 47.4908091, "lng": 11.3241815, "name": "Col", "type": "col", "ele": ""}, {"lat": 47.474771, "lng": 11.3628685, "name": "J\u00f6chel", "type": "col", "ele": "1787"}, {"lat": 46.5047196, "lng": 11.7006912, "name": "Jeuf de Fascia - Giogo di Fassa", "type": "col", "ele": "2297"}, {"lat": 46.5080689, "lng": 11.7673265, "name": "Jouf de Sela - Passo Sella - Sellajoch", "type": "col", "ele": "2240"}, {"lat": 46.5852463, "lng": 7.9613132, "name": "Kleine Scheidegg", "type": "col", "ele": "2061"}, {"lat": 45.2627255, "lng": 6.4422621, "name": "Col", "type": "col", "ele": "2250"}, {"lat": 46.3386138, "lng": 11.8002577, "name": "Passo Valles", "type": "col", "ele": "2032"}, {"lat": 46.0676009, "lng": 11.1846466, "name": "Passo del Cimirlo", "type": "col", "ele": "730"}, {"lat": 46.1732517, "lng": 11.4414698, "name": "Passo Manghen", "type": "col", "ele": "2047"}, {"lat": 46.788008, "lng": 8.0176543, "name": "Chruterepass", "type": "col", "ele": "2053"}, {"lat": 47.4092371, "lng": 10.3476872, "name": "Zeigersattel", "type": "col", "ele": "1922"}, {"lat": 44.1002269, "lng": 7.0229315, "name": "Col de la Couillole", "type": "col", "ele": "1678"}, {"lat": 46.318746, "lng": 13.0886737, "name": "Sella di Interneppo", "type": "col", "ele": "314"}, {"lat": 47.4175015, "lng": 8.3372096, "name": "Heitersbergpass", "type": "col", "ele": "664"}, {"lat": 46.3559335, "lng": 12.7827778, "name": "Passo Rest / Pas di Rest", "type": "col", "ele": "1052"}, {"lat": 44.2972097, "lng": 6.5937055, "name": "Col d'Allos", "type": "col", "ele": "2250"}, {"lat": 44.5840209, "lng": 9.168779, "name": "Passo delle Tre Croci", "type": "col", "ele": "1495"}, {"lat": 47.3567404, "lng": 9.9461643, "name": "Schnepfegg", "type": "col", "ele": "895"}, {"lat": 47.1194229, "lng": 7.0322992, "name": "Col du Chasseral", "type": "col", "ele": "1502"}, {"lat": 43.9028116, "lng": 7.4730962, "name": "Col du P\u00e9rus", "type": "col", "ele": "659"}, {"lat": 44.7873733, "lng": 6.0066175, "name": "Col des Festreaux", "type": "col", "ele": "1106"}, {"lat": 46.8298657, "lng": 6.4950363, "name": "Col des Etroits", "type": "col", "ele": "1152"}, {"lat": 45.5947257, "lng": 6.1818637, "name": "Col de l'Arclusaz", "type": "col", "ele": "1770"}, {"lat": 45.8226344, "lng": 10.4101045, "name": "Giogo del Maniva", "type": "col", "ele": "1664"}, {"lat": 45.8426989, "lng": 10.3716319, "name": "Passo Dasdana", "type": "col", "ele": "2086"}, {"lat": 43.4433002, "lng": 12.9736992, "name": "Col", "type": "col", "ele": "631"}, {"lat": 46.1953452, "lng": 11.5096012, "name": "Forcella Valsorda", "type": "col", "ele": "2256"}, {"lat": 47.2167048, "lng": 12.1304527, "name": "Breitscharte", "type": "col", "ele": "1925"}, {"lat": 47.1579595, "lng": 12.1395384, "name": "Rainbachscharte", "type": "col", "ele": "2724"}, {"lat": 43.4779525, "lng": 6.8689164, "name": "Baisse de la petite vache", "type": "col", "ele": "205"}, {"lat": 43.4839086, "lng": 6.8691044, "name": "Baisse de la grosse vache", "type": "col", "ele": "201"}, {"lat": 46.0392908, "lng": 11.0582244, "name": "Valico di Monte Bondone", "type": "col", "ele": "1651"}, {"lat": 45.3092556, "lng": 5.8541657, "name": "Pas de l'\u0152ille", "type": "col", "ele": "2026"}, {"lat": 47.3987097, "lng": 9.9076728, "name": "Col", "type": "col", "ele": "1120"}, {"lat": 44.1293316, "lng": 11.8283151, "name": "Passo del Monte Trebbio", "type": "col", "ele": "565"}, {"lat": 45.3558184, "lng": 5.918806, "name": "Col de Marcieu", "type": "col", "ele": "1060"}, {"lat": 47.1710482, "lng": 9.9987205, "name": "Formarinjoch", "type": "col", "ele": "1871"}, {"lat": 47.1634628, "lng": 9.9877756, "name": "Rauhes Joch", "type": "col", "ele": "1918"}, {"lat": 47.085157, "lng": 12.2164444, "name": "Birnl\u00fccke - Forcella del Picco", "type": "col", "ele": "2667"}, {"lat": 47.0813314, "lng": 12.1588232, "name": "Krimmler Tauern - Passo dei Tauri", "type": "col", "ele": "2633"}, {"lat": 47.009709, "lng": 10.1404337, "name": "Col", "type": "col", "ele": ""}, {"lat": 43.8651416, "lng": 6.6314626, "name": "Col de Saint-Barnab\u00e9", "type": "col", "ele": "1365"}, {"lat": 46.551898, "lng": 10.20481, "name": "Passo di Alpisella", "type": "col", "ele": "2268"}, {"lat": 46.5022719, "lng": 10.3098412, "name": "Passo Torri di Fraele", "type": "col", "ele": "1941"}, {"lat": 47.3979792, "lng": 9.3866754, "name": "Egg", "type": "col", "ele": "965"}, {"lat": 46.658739, "lng": 8.6711693, "name": "Oberalppass", "type": "col", "ele": "2044"}, {"lat": 46.1485572, "lng": 6.9203877, "name": "Col de Susanfe", "type": "col", "ele": "2494"}, {"lat": 43.8442253, "lng": 5.6974761, "name": "Col de Montfuron", "type": "col", "ele": "649"}, {"lat": 44.048696, "lng": 7.6075392, "name": "Baisse d'Arp\u00e8se", "type": "col", "ele": "1286"}, {"lat": 44.0435444, "lng": 7.6053704, "name": "Baisse de Peluna", "type": "col", "ele": "1265"}, {"lat": 45.7256022, "lng": 11.1631826, "name": "Passo delle Buse Scure", "type": "col", "ele": "1475"}, {"lat": 45.7238825, "lng": 11.136927, "name": "Bocchetta Mosca", "type": "col", "ele": "2029"}, {"lat": 45.7242973, "lng": 11.1357469, "name": "Bocchetta Capitello", "type": "col", "ele": "2100"}, {"lat": 45.9515345, "lng": 7.3800972, "name": "Col de Tsofeiret", "type": "col", "ele": "2629"}, {"lat": 46.9876059, "lng": 7.5096959, "name": "Stockereh\u00f6chi", "type": "col", "ele": "692"}, {"lat": 47.2694738, "lng": 10.130451, "name": "Hochtannbergpass", "type": "col", "ele": "1676"}, {"lat": 46.3446504, "lng": 11.5590146, "name": "Passo Feudo - Satteljoch", "type": "col", "ele": "2118"}, {"lat": 47.1763861, "lng": 10.1211628, "name": "Madlochjoch", "type": "col", "ele": "2440"}, {"lat": 45.5979918, "lng": 6.0092676, "name": "Passage de la Dorette", "type": "col", "ele": "1100"}, {"lat": 46.5770371, "lng": 11.8376295, "name": "Furcela de Ciamp\u00ebi", "type": "col", "ele": "2366"}, {"lat": 47.2421794, "lng": 7.4462817, "name": "Col", "type": "col", "ele": "1306"}, {"lat": 47.385162, "lng": 10.752075, "name": "Col", "type": "col", "ele": ""}, {"lat": 46.8557848, "lng": 9.1039433, "name": "Panixerpass / Pass dil Veptga", "type": "col", "ele": "2407"}, {"lat": 46.8346204, "lng": 9.0683888, "name": "Cavirolas Pass", "type": "col", "ele": "2528"}, {"lat": 46.825421, "lng": 9.0396464, "name": "Falla Lenn", "type": "col", "ele": "2578"}, {"lat": 44.4111059, "lng": 9.6441932, "name": "Passo Scassella", "type": "col", "ele": "1076"}, {"lat": 45.9130724, "lng": 9.0732749, "name": "Colma Prabello", "type": "col", "ele": "1201"}, {"lat": 46.5187504, "lng": 12.0084323, "name": "Passo Falzarego", "type": "col", "ele": "2105"}, {"lat": 46.1614541, "lng": 11.1345692, "name": "Passo Croce", "type": "col", "ele": "616"}, {"lat": 46.2579545, "lng": 7.9818908, "name": "\u00dcsserie Nanzlicke", "type": "col", "ele": "2602"}, {"lat": 46.5007151, "lng": 11.6789837, "name": "Sela Palacia - Christjoch", "type": "col", "ele": "2271"}, {"lat": 45.9854451, "lng": 6.4298166, "name": "Col de la Forclaz", "type": "col", "ele": "1844"}, {"lat": 45.9987571, "lng": 6.4447007, "name": "Col de Sosay", "type": "col", "ele": "1960"}, {"lat": 45.9837374, "lng": 6.4388608, "name": "Col Sous le Buclon", "type": "col", "ele": "1909"}, {"lat": 47.4349387, "lng": 10.2635831, "name": "Col", "type": "col", "ele": "930"}, {"lat": 47.4253056, "lng": 10.1845863, "name": "Col", "type": "col", "ele": ""}, {"lat": 44.4524248, "lng": 9.9188519, "name": "Passo del Righetto", "type": "col", "ele": "972"}, {"lat": 44.5313549, "lng": 9.9968169, "name": "Sella di Monte Marino", "type": "col", "ele": "939"}, {"lat": 46.8129261, "lng": 9.7962072, "name": "Strelapass", "type": "col", "ele": "2342"}, {"lat": 45.9701881, "lng": 6.5237091, "name": "Col des Annes", "type": "col", "ele": "1721"}, {"lat": 45.7331512, "lng": 9.9553794, "name": "Valico di San Fermo", "type": "col", "ele": "1067"}, {"lat": 46.6558783, "lng": 8.1018667, "name": "Grosse Scheidegg", "type": "col", "ele": "1962"}, {"lat": 46.6155403, "lng": 10.2557705, "name": "Fuorcla del Gal", "type": "col", "ele": "2278"}, {"lat": 45.7811966, "lng": 10.1873656, "name": "Colle di San Zeno", "type": "col", "ele": "1418"}, {"lat": 46.4513504, "lng": 11.0824776, "name": "Forcella di Brez - Brezer Joch", "type": "col", "ele": "1397"}, {"lat": 46.7592652, "lng": 10.3551433, "name": "Col", "type": "col", "ele": ""}, {"lat": 46.5400586, "lng": 10.3910289, "name": "Bocchetta di Forcola", "type": "col", "ele": "2768"}, {"lat": 46.5333405, "lng": 10.3690381, "name": "Bocchetta di Pedenolo", "type": "col", "ele": "2704"}, {"lat": 47.4888279, "lng": 10.1061303, "name": "Scheidwangpass", "type": "col", "ele": "1317"}, {"lat": 44.2796433, "lng": 9.5772559, "name": "Valico della Mola", "type": "col", "ele": "656"}, {"lat": 45.753471, "lng": 9.8738661, "name": "Colle Gallo", "type": "col", "ele": "754"}, {"lat": 46.047194, "lng": 9.6227781, "name": "Passo San Marco", "type": "col", "ele": "1991"}, {"lat": 45.8870965, "lng": 9.7977431, "name": "Colle di Zambla", "type": "col", "ele": "1264"}, {"lat": 47.3927541, "lng": 10.3810289, "name": "Laufbacher-Eck-Sattel", "type": "col", "ele": "2128"}, {"lat": 47.072722, "lng": 6.869822, "name": "Vue des Alpes", "type": "col", "ele": "1283"}, {"lat": 47.2911199, "lng": 13.2622276, "name": "Auhofalm-Sattel", "type": "col", "ele": "1695"}, {"lat": 47.4268328, "lng": 11.0422737, "name": "Grie\u00dfkarscharte", "type": "col", "ele": "2465"}, {"lat": 46.0469516, "lng": 11.2550959, "name": "Sella di Vignola", "type": "col", "ele": "557"}, {"lat": 45.9980997, "lng": 6.4570095, "name": "Col du Rasoir", "type": "col", "ele": "2260"}, {"lat": 45.5934856, "lng": 5.7313074, "name": "Col de la Crusille", "type": "col", "ele": "579"}, {"lat": 46.8952052, "lng": 10.1494099, "name": "Getschnerscharte", "type": "col", "ele": "2839"}, {"lat": 46.8660004, "lng": 10.2147876, "name": "Futsch\u00f6lpass", "type": "col", "ele": "2768"}, {"lat": 46.8714581, "lng": 10.2325651, "name": "Kronenjoch", "type": "col", "ele": "2974"}, {"lat": 46.1679275, "lng": 11.4501183, "name": "Forcella del Frate", "type": "col", "ele": "2230"}, {"lat": 44.4682649, "lng": 8.9599807, "name": "Crociera di Pino", "type": "col", "ele": "362"}, {"lat": 46.7292068, "lng": 8.4467607, "name": "Sustenpass", "type": "col", "ele": "2224"}, {"lat": 47.2395654, "lng": 6.9077423, "name": "Col de la Vierge", "type": "col", "ele": "969"}, {"lat": 45.5993792, "lng": 7.4981596, "name": "Finestra di Champorcher", "type": "col", "ele": "2826"}, {"lat": 45.6270146, "lng": 7.5328875, "name": "Col Fussy", "type": "col", "ele": "2910"}, {"lat": 47.3146317, "lng": 10.213747, "name": "Fiderepass", "type": "col", "ele": "2036"}, {"lat": 47.2971451, "lng": 10.1966112, "name": "Kemptner Scharte", "type": "col", "ele": "2108"}, {"lat": 47.313857, "lng": 10.2201588, "name": "Fiderescharte", "type": "col", "ele": "2200"}, {"lat": 47.4354357, "lng": 8.0300873, "name": "Benkerjoch", "type": "col", "ele": "674"}, {"lat": 47.307337, "lng": 8.084181, "name": "B\u00f6\u00f6ler Passh\u00f6chi", "type": "col", "ele": "611"}, {"lat": 46.3816283, "lng": 11.580515, "name": "Forcella Grande del Latenar - Gro\u00dfe Latemarscharte", "type": "col", "ele": "2650"}, {"lat": 46.1393746, "lng": 12.0173298, "name": "Forcella Intrig\u00f3s", "type": "col", "ele": "1757"}, {"lat": 46.3624109, "lng": 12.2920346, "name": "Forcella Ronce", "type": "col", "ele": "1980"}, {"lat": 46.6498994, "lng": 6.3659, "name": "Col du Mollendruz", "type": "col", "ele": "1180"}, {"lat": 47.265823, "lng": 10.6685639, "name": "Guggersattel", "type": "col", "ele": "2100"}, {"lat": 47.2743911, "lng": 10.6567068, "name": "Scharnitzsattel", "type": "col", "ele": "2440"}, {"lat": 47.2953637, "lng": 10.6643237, "name": "Steinj\u00f6chle", "type": "col", "ele": "2198"}, {"lat": 47.3048421, "lng": 10.678225, "name": "Kromsattel", "type": "col", "ele": "2139"}, {"lat": 47.3064076, "lng": 10.6849536, "name": "Hinterbergjoch", "type": "col", "ele": "2202"}, {"lat": 47.3291119, "lng": 10.7449927, "name": "Schweinsteinjoch", "type": "col", "ele": "1564"}, {"lat": 44.4807869, "lng": 10.0093285, "name": "Passo del Sillara di Marra", "type": "col", "ele": "1197"}, {"lat": 47.3495675, "lng": 8.460075, "name": "Whiskypass", "type": "col", "ele": "558"}, {"lat": 46.4615706, "lng": 10.0525169, "name": "Passo del Fieno", "type": "col", "ele": "2465"}, {"lat": 47.3896073, "lng": 11.0089761, "name": "Am Brand", "type": "col", "ele": "2116"}, {"lat": 47.3901262, "lng": 11.0213613, "name": "Kaltwassersattel", "type": "col", "ele": "2163"}, {"lat": 47.3887331, "lng": 11.0255192, "name": "Kothbachsattel (Wannigj\u00f6chl)", "type": "col", "ele": "2183"}, {"lat": 44.4505423, "lng": 9.3230363, "name": "Passo della Crocetta", "type": "col", "ele": "927"}, {"lat": 44.445192, "lng": 9.2977143, "name": "Passo Ventarola Sud", "type": "col", "ele": "1050"}, {"lat": 44.451773, "lng": 9.28751, "name": "Passo Ventarola nord", "type": "col", "ele": "996"}, {"lat": 44.4730649, "lng": 9.277362, "name": "Passo d'Arena", "type": "col", "ele": "908"}, {"lat": 44.4690663, "lng": 9.2666584, "name": "Passo di Pozzarelli", "type": "col", "ele": "970"}, {"lat": 44.4805912, "lng": 9.2409257, "name": "Valico di Barbagelata", "type": "col", "ele": "1125"}, {"lat": 44.4795448, "lng": 9.1367902, "name": "Passo la Colla", "type": "col", "ele": "845"}, {"lat": 46.7874671, "lng": 9.7519941, "name": "Schwifurgga", "type": "col", "ele": "2519"}, {"lat": 47.4122943, "lng": 11.1289228, "name": "Dreitorspitzgatterl", "type": "col", "ele": "2375"}, {"lat": 45.8684423, "lng": 8.7856845, "name": "Valico Pizzelle", "type": "col", "ele": "930"}, {"lat": 47.4370938, "lng": 11.0486967, "name": "Rinderscharte", "type": "col", "ele": "2095"}, {"lat": 47.2496165, "lng": 13.1530971, "name": "Arlt\u00f6rl", "type": "col", "ele": "1798"}, {"lat": 47.2160193, "lng": 11.534547, "name": "Tulfein J\u00f6chl", "type": "col", "ele": "2278"}, {"lat": 46.856571, "lng": 11.3586069, "name": "Platschjoch", "type": "col", "ele": "1799"}, {"lat": 46.7885969, "lng": 12.2809836, "name": "Pfannt\u00f6rl", "type": "col", "ele": "2505"}, {"lat": 46.2814163, "lng": 11.76155, "name": "Passo Colbricon", "type": "col", "ele": "1908"}, {"lat": 46.2700471, "lng": 11.744527, "name": "Forcella Ceremana", "type": "col", "ele": "2428"}, {"lat": 46.2642153, "lng": 11.721534, "name": "Forcella di Bragarolo", "type": "col", "ele": "2527"}, {"lat": 46.262685, "lng": 11.6889045, "name": "Forcella di Cece", "type": "col", "ele": "2393"}, {"lat": 46.2597114, "lng": 11.654551, "name": "Forcella Dos Caligher", "type": "col", "ele": "2190"}, {"lat": 43.4224246, "lng": 12.9652002, "name": "Col", "type": "col", "ele": "473"}, {"lat": 44.5521689, "lng": 8.9368658, "name": "Passo dei Giovi", "type": "col", "ele": "472"}, {"lat": 44.5198434, "lng": 8.9878379, "name": "Passo della Crocetta di Orero", "type": "col", "ele": "471"}, {"lat": 47.4584569, "lng": 10.5310875, "name": "Gappenfeldscharte", "type": "col", "ele": "1858"}, {"lat": 46.1019289, "lng": 7.144013, "name": "Col du Tronc", "type": "col", "ele": "1606"}, {"lat": 46.8122463, "lng": 7.8128658, "name": "Sattelteuffi", "type": "col", "ele": "1192"}, {"lat": 46.1022897, "lng": 7.4287393, "name": "Col de la Meina", "type": "col", "ele": ""}, {"lat": 46.2333305, "lng": 12.0131757, "name": "Forcella Franche", "type": "col", "ele": "991"}, {"lat": 45.7512639, "lng": 6.8072131, "name": "Col de la Seigne", "type": "col", "ele": "2515"}, {"lat": 45.7908544, "lng": 6.9312611, "name": "Col Ch\u00e9crouit", "type": "col", "ele": "1952"}, {"lat": 46.007369, "lng": 11.5647775, "name": "Selletta dei Castelloni", "type": "col", "ele": "1818"}, {"lat": 46.0436594, "lng": 8.8373783, "name": "Forcora d'Arasio", "type": "col", "ele": "1485"}, {"lat": 46.609358, "lng": 12.015307, "name": "J\u00fa de Limo", "type": "col", "ele": "2172"}, {"lat": 45.8912616, "lng": 11.1541852, "name": "Sella di Serrada", "type": "col", "ele": "1250"}, {"lat": 45.8988119, "lng": 10.4009997, "name": "Valico Poffa di Rondenino", "type": "col", "ele": "2011"}, {"lat": 45.8683046, "lng": 10.3807229, "name": "Giogo dela Bala", "type": "col", "ele": "2136"}, {"lat": 45.8591302, "lng": 10.376329, "name": "Sella dell'Auccia", "type": "col", "ele": "2103"}, {"lat": 45.8643954, "lng": 10.6454504, "name": "Passo dell'Ampola", "type": "col", "ele": "747"}, {"lat": 44.3823182, "lng": 9.1801857, "name": "Passo del Gallo", "type": "col", "ele": "478"}, {"lat": 46.1364143, "lng": 11.3889364, "name": "Passo dei Garofani", "type": "col", "ele": "2158"}, {"lat": 46.4591276, "lng": 8.4521245, "name": "Passo di San Giacomo", "type": "col", "ele": "2313"}, {"lat": 46.4537719, "lng": 8.3739756, "name": "Griespass", "type": "col", "ele": "2479"}, {"lat": 46.0114593, "lng": 11.509645, "name": "Passo dell'Agnella", "type": "col", "ele": "2008"}, {"lat": 47.1828582, "lng": 10.4176586, "name": "Winterj\u00f6chl", "type": "col", "ele": "2528"}, {"lat": 45.9410846, "lng": 10.8370062, "name": "Sella di Calino", "type": "col", "ele": "966"}, {"lat": 46.1051239, "lng": 11.376981, "name": "Passo del Lago", "type": "col", "ele": "2213"}, {"lat": 46.5570248, "lng": 12.2018532, "name": "Passo Tre Croci - Son Zu\u00f3go", "type": "col", "ele": "1809"}, {"lat": 47.4524913, "lng": 11.4342404, "name": "Torscharte", "type": "col", "ele": "1815"}, {"lat": 43.4395299, "lng": 12.6840719, "name": "Passo La Croce", "type": "col", "ele": "665"}, {"lat": 47.0387402, "lng": 12.1916046, "name": "Lenkj\u00f6chl", "type": "col", "ele": "2590"}, {"lat": 46.619381, "lng": 12.119894, "name": "Forcella de Lerosa", "type": "col", "ele": "2020"}, {"lat": 45.5369336, "lng": 5.9354067, "name": "Col de la Coche", "type": "col", "ele": "610"}, {"lat": 46.3538109, "lng": 11.5398288, "name": "Reiterjoch - Passo di Pampeago", "type": "col", "ele": "1983"}, {"lat": 46.1296217, "lng": 6.7129074, "name": "Col de Joux Plane", "type": "col", "ele": "1691"}, {"lat": 46.7069843, "lng": 12.4029503, "name": "Leckfeldsattel - Sella di Confine", "type": "col", "ele": "2381"}, {"lat": 46.0246241, "lng": 6.9515113, "name": "Col des Posettes", "type": "col", "ele": "1997"}, {"lat": 44.5624392, "lng": 8.8447815, "name": "Passo Mezzano", "type": "col", "ele": "1066"}, {"lat": 44.5370762, "lng": 8.8393961, "name": "Passo Prato Leone", "type": "col", "ele": "779"}, {"lat": 44.5289312, "lng": 8.8345039, "name": "Giogo di Paravanico", "type": "col", "ele": ""}, {"lat": 44.5167091, "lng": 8.8178185, "name": "Colla di Praglia", "type": "col", "ele": "880"}, {"lat": 47.2821654, "lng": 10.1762068, "name": "Koblatpass", "type": "col", "ele": "2054"}, {"lat": 45.8760254, "lng": 7.1452648, "name": "Fen\u00eatre de Ferret", "type": "col", "ele": "2698"}, {"lat": 46.3123087, "lng": 11.3930437, "name": "Passo di San Lugano - San-Lugano-Sattel", "type": "col", "ele": "1097"}, {"lat": 45.6475028, "lng": 6.0190475, "name": "Col de Plainpalais", "type": "col", "ele": "1173"}, {"lat": 46.5040184, "lng": 13.2451519, "name": "Sella Cereschiatis", "type": "col", "ele": "1072"}, {"lat": 46.9250572, "lng": 10.0253643, "name": "Hochmadererjoch", "type": "col", "ele": "2505"}, {"lat": 46.4288292, "lng": 11.618836, "name": "Vaiolonpass - Passo Vajolon", "type": "col", "ele": "2550"}, {"lat": 47.3179828, "lng": 11.1985505, "name": "Seefelder Sattel", "type": "col", "ele": "1185"}, {"lat": 47.3405985, "lng": 11.2399813, "name": "Seefelder Joch", "type": "col", "ele": "2060"}, {"lat": 45.8347352, "lng": 10.8017421, "name": "Passo Rocchetta", "type": "col", "ele": "1159"}, {"lat": 47.0007417, "lng": 10.7839072, "name": "Col", "type": "col", "ele": "2690"}, {"lat": 47.2463835, "lng": 10.4888339, "name": "Schafkarscharte", "type": "col", "ele": "2445"}, {"lat": 46.8873207, "lng": 10.0457252, "name": "Litznersattel", "type": "col", "ele": "2737"}, {"lat": 44.8124979, "lng": 6.6877837, "name": "Col des Ayes", "type": "col", "ele": "2477"}, {"lat": 44.689685, "lng": 6.806025, "name": "Col Fromage", "type": "col", "ele": "2301"}, {"lat": 44.6076676, "lng": 6.8210935, "name": "Col Girardin", "type": "col", "ele": "2699"}, {"lat": 44.5001078, "lng": 6.8465855, "name": "Col du Vallonet", "type": "col", "ele": "2524"}, {"lat": 44.4750512, "lng": 6.8527925, "name": "Col de Mallemort", "type": "col", "ele": "2558"}, {"lat": 44.3565688, "lng": 6.8803726, "name": "Pas de la Cavale", "type": "col", "ele": "2671"}, {"lat": 44.2730831, "lng": 6.8907826, "name": "Col d'Anelle", "type": "col", "ele": "1739"}, {"lat": 44.2090073, "lng": 6.9432098, "name": "Col du Blainon", "type": "col", "ele": ""}, {"lat": 44.1491806, "lng": 6.9504881, "name": "Col de Crousette", "type": "col", "ele": "2480"}, {"lat": 44.0966607, "lng": 7.4276326, "name": "Baisse du Basto", "type": "col", "ele": "2693"}, {"lat": 43.8977197, "lng": 7.4442443, "name": "Baisse de Fighi\u00e8ra", "type": "col", "ele": "750"}, {"lat": 43.8499703, "lng": 7.4867396, "name": "Col du Razet", "type": "col", "ele": "1033"}, {"lat": 44.1011685, "lng": 7.3858283, "name": "Pas du Mont Colomb", "type": "col", "ele": "2548"}, {"lat": 44.0251324, "lng": 7.4141183, "name": "Col de Raus", "type": "col", "ele": "1999"}, {"lat": 43.8149682, "lng": 7.5130148, "name": "Col du Berceau", "type": "col", "ele": "1080"}, {"lat": 44.1125335, "lng": 7.3531629, "name": "Pas des Ladres", "type": "col", "ele": "2448"}, {"lat": 46.9002183, "lng": 10.0148926, "name": "Plattenjoch", "type": "col", "ele": "2728"}, {"lat": 46.8605711, "lng": 10.084772, "name": "Rotfluhl\u00fccke", "type": "col", "ele": ""}, {"lat": 46.8480601, "lng": 10.1258104, "name": "Vermuntjoch", "type": "col", "ele": "2798"}, {"lat": 44.4052759, "lng": 9.0803362, "name": "Sella di Monte Cordona", "type": "col", "ele": "735"}, {"lat": 44.3935745, "lng": 9.0635138, "name": "Passo La Crocetta", "type": "col", "ele": ""}, {"lat": 44.7108916, "lng": 7.0663531, "name": "Col de la Traversette / Colle Delle Traversette", "type": "col", "ele": "2950"}, {"lat": 46.854389, "lng": 10.1440024, "name": "Obere Ochsenscharte", "type": "col", "ele": "2955"}, {"lat": 47.0387021, "lng": 8.8880034, "name": "Schwialppass", "type": "col", "ele": "1560"}, {"lat": 47.0461906, "lng": 11.4278695, "name": "Eggerjoch", "type": "col", "ele": "2130"}, {"lat": 47.4175619, "lng": 10.3506847, "name": "Col", "type": "col", "ele": ""}, {"lat": 46.8610704, "lng": 10.0616916, "name": "Rote Furka", "type": "col", "ele": "2688"}, {"lat": 47.4455446, "lng": 10.0051023, "name": "Col", "type": "col", "ele": "1028"}, {"lat": 46.9656577, "lng": 9.8734766, "name": "St Antoenier Joch", "type": "col", "ele": "2371"}, {"lat": 47.4106612, "lng": 9.9478054, "name": "Col", "type": "col", "ele": ""}, {"lat": 47.3896885, "lng": 9.991161, "name": "Schreiberesattel", "type": "col", "ele": "1526"}, {"lat": 47.1449462, "lng": 11.2676213, "name": "Seej\u00f6chl", "type": "col", "ele": "2518"}, {"lat": 46.8352177, "lng": 10.9651792, "name": "Ramoljoch", "type": "col", "ele": "3189"}, {"lat": 46.4398384, "lng": 11.6193393, "name": "Tschager Joch - Pas da le Coronele - Passo delle Coronelle", "type": "col", "ele": "2630"}, {"lat": 45.5989355, "lng": 5.9938363, "name": "Passage de la F\u00e9claz", "type": "col", "ele": "1292"}, {"lat": 47.4340327, "lng": 9.8435264, "name": "Lorenapass", "type": "col", "ele": "1049"}, {"lat": 46.9922748, "lng": 11.154114, "name": "Peiljoch", "type": "col", "ele": "2672"}, {"lat": 47.4616792, "lng": 10.5417562, "name": "Strindenscharte", "type": "col", "ele": "1855"}, {"lat": 45.9555995, "lng": 11.4530877, "name": "Bocchetta Portule", "type": "col", "ele": "1937"}, {"lat": 46.3665555, "lng": 8.3426958, "name": "Scatta Minoia", "type": "col", "ele": "2599"}, {"lat": 46.2228981, "lng": 7.6613689, "name": "Meidpass", "type": "col", "ele": "2790"}, {"lat": 45.9809063, "lng": 11.434432, "name": "Porta Renzola", "type": "col", "ele": "1949"}, {"lat": 47.1952971, "lng": 10.957685, "name": "Mittertalscharte", "type": "col", "ele": "2630"}, {"lat": 43.9614329, "lng": 6.4930855, "name": "Col des Robines", "type": "col", "ele": "988"}, {"lat": 44.0071745, "lng": 6.4441972, "name": "Col du Castellet", "type": "col", "ele": "1225"}, {"lat": 44.5736044, "lng": 10.168763, "name": "Valico di Fragno", "type": "col", "ele": "849"}, {"lat": 47.1699432, "lng": 11.5655126, "name": "Naviser J\u00f6chl", "type": "col", "ele": "2479"}, {"lat": 46.9890207, "lng": 11.2445264, "name": "Simmingj\u00f6chl", "type": "col", "ele": "2764"}, {"lat": 47.4910016, "lng": 10.7691433, "name": "Ochsenboden", "type": "col", "ele": ""}, {"lat": 47.4876569, "lng": 10.7814415, "name": "L\u00e4rchenboden", "type": "col", "ele": ""}, {"lat": 47.1133305, "lng": 8.4157942, "name": "Michaelskreuz", "type": "col", "ele": "793"}, {"lat": 47.0437223, "lng": 11.3116152, "name": "Pinnisjoch", "type": "col", "ele": "2372"}, {"lat": 44.9882, "lng": 6.8685159, "name": "Col Basset", "type": "col", "ele": "2424"}, {"lat": 44.0938489, "lng": 7.5340989, "name": "Baisse d'Ourne", "type": "col", "ele": "2040"}, {"lat": 46.4370478, "lng": 11.7593173, "name": "Sela dal Brun\u00e9ch", "type": "col", "ele": "2420"}, {"lat": 45.7202682, "lng": 11.2210989, "name": "Passo Xon", "type": "col", "ele": "671"}, {"lat": 46.0312054, "lng": 9.52224, "name": "Bocchetta di Trona", "type": "col", "ele": "2092"}, {"lat": 46.9699582, "lng": 11.3874345, "name": "Portjoch - Forcella di Porto", "type": "col", "ele": "2110"}, {"lat": 47.4206243, "lng": 13.0541867, "name": "Col", "type": "col", "ele": ""}, {"lat": 47.2661477, "lng": 7.5395614, "name": "Balmberg", "type": "col", "ele": ""}, {"lat": 46.1552523, "lng": 9.1723435, "name": "Passo del Giovo", "type": "col", "ele": "1704"}, {"lat": 46.08612, "lng": 9.0894472, "name": "Passo San Lucio", "type": "col", "ele": "1550"}, {"lat": 46.0794068, "lng": 9.1148164, "name": "Passo della Cava", "type": "col", "ele": "1150"}, {"lat": 46.2373166, "lng": 11.5842261, "name": "Passo Sadole", "type": "col", "ele": "2066"}, {"lat": 46.2356518, "lng": 11.5929216, "name": "Selletta Carteri", "type": "col", "ele": "2343"}, {"lat": 47.4289261, "lng": 7.9859682, "name": "Salh\u00f6he", "type": "col", "ele": "779"}, {"lat": 47.2977403, "lng": 9.8465584, "name": "S\u00fcnser Joch", "type": "col", "ele": "1903"}, {"lat": 46.1526192, "lng": 10.8140324, "name": "Passo del Gotro", "type": "col", "ele": "1858"}, {"lat": 46.1455785, "lng": 10.8479894, "name": "Passo XII Apostoli", "type": "col", "ele": "2584"}, {"lat": 45.7812301, "lng": 10.6697724, "name": "Passo della Puria", "type": "col", "ele": "1374"}, {"lat": 45.7468643, "lng": 10.6538173, "name": "Bocca Paolone", "type": "col", "ele": "947"}, {"lat": 45.775928, "lng": 10.6726735, "name": "Passo di Scarpap\u00e8", "type": "col", "ele": "1250"}, {"lat": 46.9630841, "lng": 8.6433427, "name": "Furggelen", "type": "col", "ele": ""}, {"lat": 45.8885122, "lng": 10.8016023, "name": "Bocca Giumella", "type": "col", "ele": "1408"}, {"lat": 47.339232, "lng": 10.0453578, "name": "Col", "type": "col", "ele": "1808"}, {"lat": 47.3191012, "lng": 10.0828271, "name": "Starzeljoch", "type": "col", "ele": "1867"}, {"lat": 47.0153175, "lng": 12.7218066, "name": "Peischlacht\u00f6rl", "type": "col", "ele": "2484"}, {"lat": 47.1191471, "lng": 12.6224822, "name": "Kalser T\u00f6rl", "type": "col", "ele": "2515"}, {"lat": 43.9582726, "lng": 7.1986407, "name": "Col de l'Abeille", "type": "col", "ele": "922"}, {"lat": 43.9835663, "lng": 7.4378014, "name": "Col", "type": "col", "ele": "1764"}, {"lat": 43.9139686, "lng": 7.5605163, "name": "Passo della Colomba", "type": "col", "ele": ""}, {"lat": 43.9045681, "lng": 7.5621805, "name": "Colla Sgora", "type": "col", "ele": ""}, {"lat": 46.2478592, "lng": 10.3003716, "name": "Passo della Foppa", "type": "col", "ele": "1852"}, {"lat": 47.3279765, "lng": 9.7197702, "name": "Treietpass", "type": "col", "ele": "1489"}, {"lat": 47.1320409, "lng": 9.6254377, "name": "Mattlerjoch", "type": "col", "ele": "1867"}, {"lat": 46.0708706, "lng": 11.5924163, "name": "Passo della Forcella", "type": "col", "ele": "910"}, {"lat": 47.3935713, "lng": 10.1654274, "name": "H\u00f6rnlepass", "type": "col", "ele": ""}, {"lat": 44.4698062, "lng": 8.669437, "name": "Passo della Cerusa", "type": "col", "ele": "931"}, {"lat": 43.8950479, "lng": 11.9564939, "name": "Passo del Carnaio", "type": "col", "ele": "776"}, {"lat": 43.9986404, "lng": 7.2360756, "name": "Col d'Andrion", "type": "col", "ele": "1680"}, {"lat": 47.3747785, "lng": 9.9482078, "name": "Bizegg", "type": "col", "ele": "894"}, {"lat": 46.1004797, "lng": 11.1483896, "name": "Sella Forte Casara", "type": "col", "ele": "892"}, {"lat": 44.6220631, "lng": 9.3729802, "name": "Passo di Monte Veri", "type": "col", "ele": "1077"}, {"lat": 44.103957, "lng": 7.188208, "name": "Col de Veillos", "type": "col", "ele": "2194"}, {"lat": 44.4895468, "lng": 9.1878066, "name": "Sella della Giassina", "type": "col", "ele": "926"}, {"lat": 45.8364892, "lng": 10.7527161, "name": "Passo Bestana", "type": "col", "ele": "1286"}, {"lat": 45.8562297, "lng": 10.6882133, "name": "Boch\u00e8t de Cas\u00e8t", "type": "col", "ele": "1645"}, {"lat": 45.8392195, "lng": 10.704906, "name": "Bocca di Val Marza", "type": "col", "ele": "1787"}, {"lat": 45.8313203, "lng": 10.6750223, "name": "Passo del Dil", "type": "col", "ele": "1721"}, {"lat": 45.8324721, "lng": 10.6593327, "name": "Passo del Cap", "type": "col", "ele": "1786"}, {"lat": 45.8245463, "lng": 10.6567276, "name": "Bocchetta di Selvaraonda", "type": "col", "ele": "1696"}, {"lat": 47.1059147, "lng": 11.0403878, "name": "Zwieselbachjoch", "type": "col", "ele": "2868"}, {"lat": 45.9645359, "lng": 10.8310577, "name": "Sella del Misone", "type": "col", "ele": ""}, {"lat": 46.7725469, "lng": 10.8549265, "name": "Niederjoch - Giogo Basso", "type": "col", "ele": "3012"}, {"lat": 45.8291608, "lng": 11.2056337, "name": "Passo della Borcola", "type": "col", "ele": "1207"}, {"lat": 45.9752304, "lng": 10.9750123, "name": "Passo San Udalrico", "type": "col", "ele": "585"}, {"lat": 44.3205167, "lng": 6.8074635, "name": "Col de la Cime de la Bonette", "type": "col", "ele": "2802"}, {"lat": 46.9529519, "lng": 11.8256499, "name": "Kranner Schneid", "type": "col", "ele": "2380"}, {"lat": 46.9575607, "lng": 11.8080338, "name": "Nevesjoch - Passo di Neves", "type": "col", "ele": "2407"}, {"lat": 47.3874903, "lng": 11.8766865, "name": "Kerschbaumer Sattel", "type": "col", "ele": "1113"}, {"lat": 44.430528, "lng": 8.6778898, "name": "Passo della Gavetta", "type": "col", "ele": "715"}, {"lat": 46.5546722, "lng": 8.0067934, "name": "Obers M\u00f6nchsjoch", "type": "col", "ele": "3624"}, {"lat": 46.5367268, "lng": 12.2145923, "name": "Forcella Marcuoira", "type": "col", "ele": "2307"}, {"lat": 45.6067716, "lng": 5.9892422, "name": "Col de la Doria", "type": "col", "ele": "1143"}, {"lat": 46.4742503, "lng": 11.6391598, "name": "Passo Principe - Grasleitenpass", "type": "col", "ele": "2601"}, {"lat": 46.4707893, "lng": 11.6456762, "name": "Passo di Antermoia", "type": "col", "ele": "2770"}, {"lat": 45.8239356, "lng": 11.9608274, "name": "Forcella Mostaccin", "type": "col", "ele": "372"}, {"lat": 45.924684, "lng": 8.6461746, "name": "Passo Barb\u00e8", "type": "col", "ele": "873"}, {"lat": 45.9269745, "lng": 8.6705299, "name": "Passo del Cuvignone", "type": "col", "ele": "1036"}, {"lat": 45.4110236, "lng": 6.1883478, "name": "Col de la Perri\u00e8re", "type": "col", "ele": "2003"}, {"lat": 46.0140426, "lng": 7.207281, "name": "Col de Mille", "type": "col", "ele": "2472"}, {"lat": 46.4199088, "lng": 11.6303349, "name": "Sella del Ciampaz", "type": "col", "ele": "2280"}, {"lat": 46.10921, "lng": 7.2568139, "name": "Col des Mines", "type": "col", "ele": "2320"}, {"lat": 45.8994891, "lng": 7.3910177, "name": "Col de Cr\u00eate S\u00e8che", "type": "col", "ele": "2899"}, {"lat": 46.0199741, "lng": 8.5383299, "name": "Colle della Forcola", "type": "col", "ele": "1518"}, {"lat": 45.9071405, "lng": 10.9771399, "name": "Passo Bordala", "type": "col", "ele": "1250"}, {"lat": 45.8962966, "lng": 10.9403437, "name": "Passo Santa Barbara", "type": "col", "ele": "1169"}, {"lat": 44.2551892, "lng": 6.7253207, "name": "Col de la Petite Cayolle", "type": "col", "ele": "2639"}, {"lat": 44.2391265, "lng": 6.7236709, "name": "Pas du Lausson", "type": "col", "ele": "2602"}, {"lat": 44.4588445, "lng": 8.6691893, "name": "Passo del Faiallo", "type": "col", "ele": "1060"}, {"lat": 44.4386659, "lng": 8.6875358, "name": "Passo Tardie", "type": "col", "ele": "862"}, {"lat": 45.4792099, "lng": 7.1423209, "name": "Colle del Nivolet", "type": "col", "ele": "2612"}, {"lat": 45.6147463, "lng": 6.5001334, "name": "Col de la Torche", "type": "col", "ele": "1950"}, {"lat": 47.262478, "lng": 9.8348085, "name": "Seraj\u00f6chle", "type": "col", "ele": "1836"}, {"lat": 47.2666273, "lng": 9.8329014, "name": "Furkajoch", "type": "col", "ele": "1758"}, {"lat": 46.1642847, "lng": 10.5928982, "name": "Passo delle Topette", "type": "col", "ele": "2902"}, {"lat": 47.4623966, "lng": 11.5587752, "name": "Grasbergsattel", "type": "col", "ele": "1540"}, {"lat": 45.7034792, "lng": 11.1160579, "name": "Passo Pertica", "type": "col", "ele": "1530"}, {"lat": 46.7168328, "lng": 7.6211253, "name": "Gwattegg", "type": "col", "ele": "636"}, {"lat": 46.1895435, "lng": 7.1012122, "name": "Col du Fenestral", "type": "col", "ele": "2452"}, {"lat": 43.5483234, "lng": 5.6651839, "name": "Col des Portes", "type": "col", "ele": ""}, {"lat": 45.7986048, "lng": 10.8937523, "name": "Bocca del Creer", "type": "col", "ele": "1617"}, {"lat": 44.2302874, "lng": 8.196958, "name": "Colle del Melogno", "type": "col", "ele": "1028"}, {"lat": 46.980575, "lng": 7.517062, "name": "Talh\u00f6chi", "type": "col", "ele": "769"}, {"lat": 44.4290836, "lng": 8.4735456, "name": "Passo del Giovo", "type": "col", "ele": "516"}, {"lat": 44.4117764, "lng": 8.4573502, "name": "Sella Burain", "type": "col", "ele": "735"}, {"lat": 44.3904014, "lng": 8.422129, "name": "Passo della Biscia", "type": "col", "ele": ""}, {"lat": 44.2952147, "lng": 8.3375458, "name": "Passo Baraccone", "type": "col", "ele": "670"}, {"lat": 45.8310478, "lng": 11.9664849, "name": "Passaggio di Nord Ovest", "type": "col", "ele": "405"}, {"lat": 46.1192608, "lng": 7.2078758, "name": "Col de la Marlena", "type": "col", "ele": "2315"}, {"lat": 47.2299456, "lng": 7.4110004, "name": "Col", "type": "col", "ele": "1216"}, {"lat": 45.7601964, "lng": 11.1733246, "name": "Pian delle Fugazze", "type": "col", "ele": "1163"}, {"lat": 47.3781886, "lng": 10.3251301, "name": "Col", "type": "col", "ele": "1701"}, {"lat": 45.8711714, "lng": 10.9793966, "name": "Passo di Monte Fa\u00e8", "type": "col", "ele": "932"}, {"lat": 44.4370596, "lng": 7.0262835, "name": "Col", "type": "col", "ele": "2380"}, {"lat": 45.8682231, "lng": 11.2719171, "name": "Forcella Valbona", "type": "col", "ele": "1785"}, {"lat": 45.8754284, "lng": 11.2982449, "name": "Bocchetta degli Alpini", "type": "col", "ele": "1566"}, {"lat": 45.6312061, "lng": 7.7824655, "name": "Col-de-Fen\u00eatre", "type": "col", "ele": "1673"}, {"lat": 45.8591774, "lng": 7.1921874, "name": "Colle Orientale Di Barasson", "type": "col", "ele": "2680"}, {"lat": 45.8368842, "lng": 7.0783107, "name": "Col de Malatra", "type": "col", "ele": "2925"}, {"lat": 46.1529583, "lng": 8.1529536, "name": "Bocchetta di Gattascosa", "type": "col", "ele": "2158"}, {"lat": 46.218581, "lng": 12.0556443, "name": "Forcella Zana", "type": "col", "ele": "1675"}, {"lat": 46.5453281, "lng": 11.9893596, "name": "Forcela de Salares", "type": "col", "ele": "2283"}, {"lat": 46.6275494, "lng": 11.9994394, "name": "Ju de Sant Antone", "type": "col", "ele": "2466"}, {"lat": 46.8623737, "lng": 11.8176236, "name": "Pichlbergscharte - Forcella di Montecolle", "type": "col", "ele": "2311"}, {"lat": 46.8464981, "lng": 11.59329, "name": "Valler J\u00f6chl - Passo di Valles", "type": "col", "ele": "1932"}, {"lat": 45.7771002, "lng": 11.2375529, "name": "Passo Xomo", "type": "col", "ele": "1058"}, {"lat": 45.6365733, "lng": 5.9630743, "name": "Col du Sire", "type": "col", "ele": "1418"}, {"lat": 46.2886414, "lng": 5.7995444, "name": "Col de la Croix de la Serra", "type": "col", "ele": "1049"}, {"lat": 47.3923592, "lng": 9.4609275, "name": "Wissegg", "type": "col", "ele": "1058"}, {"lat": 45.8828093, "lng": 10.3946052, "name": "Passo di Rondenino", "type": "col", "ele": "2042"}, {"lat": 45.8470286, "lng": 10.3679903, "name": "Goletto di Ravenola", "type": "col", "ele": "2071"}, {"lat": 45.9142334, "lng": 10.4371234, "name": "Goletto di Gaver", "type": "col", "ele": "1795"}, {"lat": 46.6228991, "lng": 11.8663494, "name": "Joeljoch", "type": "col", "ele": "1725"}, {"lat": 47.3848228, "lng": 9.2924284, "name": "Egg", "type": "col", "ele": "858"}, {"lat": 47.2979771, "lng": 10.3540897, "name": "Karjoch", "type": "col", "ele": "2290"}, {"lat": 45.4440029, "lng": 5.8116804, "name": "Col des \u00c9gaux", "type": "col", "ele": "958"}, {"lat": 45.462505, "lng": 5.8416813, "name": "Col de Grapillon", "type": "col", "ele": "1518"}, {"lat": 45.567795, "lng": 6.0586135, "name": "Col Servenne", "type": "col", "ele": "1292"}, {"lat": 45.5741578, "lng": 6.072511, "name": "Col de la Buffaz", "type": "col", "ele": "1439"}, {"lat": 47.1694559, "lng": 10.3154398, "name": "Schindelescharte", "type": "col", "ele": "2442"}, {"lat": 47.1747075, "lng": 10.3449994, "name": "Gridlonscharte", "type": "col", "ele": "2371"}, {"lat": 47.17966, "lng": 10.385495, "name": "Alperschonjoch", "type": "col", "ele": "2301"}, {"lat": 47.1884969, "lng": 10.4252202, "name": "Grie\u00dflscharte", "type": "col", "ele": "2632"}, {"lat": 47.1929606, "lng": 10.4939605, "name": "Seescharte", "type": "col", "ele": "2599"}, {"lat": 45.7934857, "lng": 11.0704996, "name": "Passo della Portela", "type": "col", "ele": ""}, {"lat": 45.7782977, "lng": 11.0846311, "name": "Passo Buole", "type": "col", "ele": "1460"}, {"lat": 47.3241598, "lng": 10.3482971, "name": "Marchsattel", "type": "col", "ele": "2201"}, {"lat": 47.3236568, "lng": 10.3318098, "name": "F\u00fcrschie\u00dfersattel", "type": "col", "ele": "2206"}, {"lat": 46.7826208, "lng": 13.1172925, "name": "Ochsent\u00f6rl", "type": "col", "ele": "2070"}, {"lat": 46.7209061, "lng": 11.0830982, "name": "Hochgangscharte - Passo del Valico", "type": "col", "ele": "2455"}, {"lat": 46.9046801, "lng": 8.3351861, "name": "\u00c4cherlipass", "type": "col", "ele": "1458"}, {"lat": 46.6058367, "lng": 11.0258805, "name": "N\u00f6rderscharte", "type": "col", "ele": "2372"}, {"lat": 46.5902876, "lng": 10.9949197, "name": "Tablander Joch - Giogo di Tabl\u00e0", "type": "col", "ele": "2428"}, {"lat": 45.9830614, "lng": 7.0255637, "name": "Fen\u00eatre de Saleina", "type": "col", "ele": "3261"}, {"lat": 46.294392, "lng": 11.3318412, "name": "Passo Cisa - Ziss-Sattel", "type": "col", "ele": "1448"}, {"lat": 44.6973459, "lng": 9.25356, "name": "Passo della Ritorta", "type": "col", "ele": "1450"}, {"lat": 44.7087328, "lng": 9.2591905, "name": "Sella la Colla", "type": "col", "ele": "1356"}, {"lat": 46.1595533, "lng": 10.8135655, "name": "Passo Bregn de l'Ors", "type": "col", "ele": "1836"}, {"lat": 47.1787345, "lng": 11.2813557, "name": "Hoadlsattel", "type": "col", "ele": "2260"}, {"lat": 45.9277632, "lng": 10.7660223, "name": "Bocca di Trat", "type": "col", "ele": "1581"}, {"lat": 46.1040219, "lng": 7.2654776, "name": "Creblet", "type": "col", "ele": ""}, {"lat": 45.6211064, "lng": 6.0523362, "name": "Col de la Verne", "type": "col", "ele": "1513"}, {"lat": 45.8155493, "lng": 11.1301205, "name": "Bocchetta di Foxi", "type": "col", "ele": "1720"}, {"lat": 45.8190008, "lng": 11.1465055, "name": "Bocchetta delle Corde", "type": "col", "ele": "1900"}, {"lat": 45.8001164, "lng": 11.1792442, "name": "Selletta Del Groviglio", "type": "col", "ele": "2077"}, {"lat": 45.8039303, "lng": 11.1665365, "name": "Sella del Roite", "type": "col", "ele": "2081"}, {"lat": 47.4408657, "lng": 10.5021859, "name": "Westliches Lachenjoch", "type": "col", "ele": "1970"}, {"lat": 45.8241075, "lng": 11.117063, "name": "Valico del Menderle", "type": "col", "ele": "1679"}, {"lat": 43.5981401, "lng": 11.3635757, "name": "Passo del Sugame", "type": "col", "ele": "530"}, {"lat": 47.4002755, "lng": 9.3980343, "name": "H\u00e4uslersegg", "type": "col", "ele": "1005"}, {"lat": 45.8373488, "lng": 9.1815571, "name": "Bocchetta del Bolettone", "type": "col", "ele": "1294"}, {"lat": 47.3328242, "lng": 12.0631812, "name": "Siedeljoch", "type": "col", "ele": "1689"}, {"lat": 46.0681236, "lng": 7.3349981, "name": "Col de Momin", "type": "col", "ele": "3015"}, {"lat": 47.2654481, "lng": 9.4237487, "name": "Bogartenl\u00fccke", "type": "col", "ele": "1710"}, {"lat": 47.2562945, "lng": 9.4024044, "name": "Widderalpsattel", "type": "col", "ele": "1855"}, {"lat": 46.7873798, "lng": 8.0574312, "name": "Eiseesattel", "type": "col", "ele": "2025"}, {"lat": 46.3080879, "lng": 8.2091415, "name": "Chriegalppass", "type": "col", "ele": "2436"}, {"lat": 46.3464346, "lng": 8.2562817, "name": "Geisspfadpass", "type": "col", "ele": "2474"}, {"lat": 43.363526, "lng": 6.6734276, "name": "Col de Bougnon", "type": "col", "ele": "156"}, {"lat": 44.6118663, "lng": 6.1338249, "name": "Col de Manse", "type": "col", "ele": "1268"}, {"lat": 46.074699, "lng": 7.3074469, "name": "Col de la Chaux", "type": "col", "ele": "2940"}, {"lat": 45.9374457, "lng": 8.7087944, "name": "Passo di San Michele", "type": "col", "ele": "885"}, {"lat": 44.4305619, "lng": 10.2653881, "name": "Passo Ferrarino", "type": "col", "ele": "899"}, {"lat": 43.8264346, "lng": 7.4980844, "name": "Col St-Bernard", "type": "col", "ele": "769"}, {"lat": 43.8240186, "lng": 7.5115701, "name": "Pas de la Corne", "type": "col", "ele": "1046"}, {"lat": 46.5298273, "lng": 11.9014747, "name": "Passo Incisa - Ju d'Inzija", "type": "col", "ele": "1938"}, {"lat": 44.5895424, "lng": 6.6495585, "name": "Col du Vallon", "type": "col", "ele": "2470"}, {"lat": 46.9013517, "lng": 6.0724094, "name": "Col de Chalamont", "type": "col", "ele": "867"}, {"lat": 47.3300681, "lng": 10.6385232, "name": "Col", "type": "col", "ele": ""}, {"lat": 46.7738216, "lng": 10.8251621, "name": "Col", "type": "col", "ele": "3375"}, {"lat": 46.8549398, "lng": 11.0717701, "name": "Aperes Ferwalljoch", "type": "col", "ele": "2903"}, {"lat": 46.8850093, "lng": 10.8020993, "name": "Sexegertenjoch", "type": "col", "ele": "3300"}, {"lat": 46.887675, "lng": 10.8222458, "name": "Taschachjoch", "type": "col", "ele": "3236"}, {"lat": 46.8887431, "lng": 10.8935601, "name": "Taufkarjoch", "type": "col", "ele": "3218"}, {"lat": 46.9772867, "lng": 10.9547358, "name": "Hainbachjoch", "type": "col", "ele": "2727"}, {"lat": 47.0215116, "lng": 10.9166432, "name": "Col", "type": "col", "ele": "3034"}, {"lat": 47.0263362, "lng": 10.9030608, "name": "Breitlehnj\u00f6chel", "type": "col", "ele": "2639"}, {"lat": 47.042428, "lng": 10.901698, "name": "Reiserscharte", "type": "col", "ele": "2809"}, {"lat": 47.0819898, "lng": 10.8977512, "name": "Felderj\u00f6chl", "type": "col", "ele": "2797"}, {"lat": 47.137878, "lng": 10.825702, "name": "S\u00fcdscharte", "type": "col", "ele": ""}, {"lat": 46.924572, "lng": 10.788242, "name": "Col", "type": "col", "ele": "3170"}, {"lat": 46.942387, "lng": 10.78671, "name": "Wurmtalerjoch", "type": "col", "ele": ""}, {"lat": 46.9634564, "lng": 10.7934893, "name": "Rostizjoch", "type": "col", "ele": "3093"}, {"lat": 46.9770733, "lng": 10.798888, "name": "Watzejoch", "type": "col", "ele": "3138"}, {"lat": 46.9939408, "lng": 10.7953943, "name": "Schneeiges Madatschjoch", "type": "col", "ele": "3020"}, {"lat": 47.00447, "lng": 10.79851, "name": "Schwabenjoch", "type": "col", "ele": "3196"}, {"lat": 47.0141163, "lng": 10.8127262, "name": "Verpeiljoch", "type": "col", "ele": "2830"}, {"lat": 47.046322, "lng": 10.799813, "name": "Col", "type": "col", "ele": "2903"}, {"lat": 47.053063, "lng": 10.80139, "name": "Dristkogelscharte", "type": "col", "ele": "2810"}, {"lat": 47.061507, "lng": 10.795612, "name": "Kreuznieder", "type": "col", "ele": "2746"}, {"lat": 46.9722043, "lng": 11.125797, "name": "Fernaujoch", "type": "col", "ele": "3055"}, {"lat": 46.9375886, "lng": 10.3089838, "name": "Zeblasjoch", "type": "col", "ele": ""}, {"lat": 44.4830964, "lng": 9.035455, "name": "Gola di Sisa", "type": "col", "ele": "729"}, {"lat": 43.4037086, "lng": 6.6219676, "name": "Col de Valdingarde", "type": "col", "ele": "392"}, {"lat": 45.9452959, "lng": 10.864098, "name": "Bocca di Tovo", "type": "col", "ele": "1079"}, {"lat": 45.9347749, "lng": 10.8765378, "name": "Bocchetta di Padaro", "type": "col", "ele": "418"}, {"lat": 47.4482333, "lng": 11.6172031, "name": "Plumssattel", "type": "col", "ele": "1669"}, {"lat": 46.24312, "lng": 10.8402325, "name": "Passo Campo Carlo Magno", "type": "col", "ele": "1682"}, {"lat": 45.2661763, "lng": 6.5813462, "name": "Col de la Mont\u00e9e du Fond", "type": "col", "ele": "2974"}, {"lat": 44.9059141, "lng": 5.6261968, "name": "Col du Fau", "type": "col", "ele": "899"}, {"lat": 44.2596133, "lng": 8.3103348, "name": "Colla di San Giacomo", "type": "col", "ele": "796"}, {"lat": 44.2472307, "lng": 8.2620335, "name": "Bassa della Scoggia", "type": "col", "ele": ""}, {"lat": 47.337959, "lng": 10.0717642, "name": "Col", "type": "col", "ele": ""}, {"lat": 47.2283625, "lng": 10.1021854, "name": "Mohnensattel", "type": "col", "ele": "2316"}, {"lat": 44.4230129, "lng": 8.6192939, "name": "Passo Camul\u00e0", "type": "col", "ele": "790"}, {"lat": 45.2396059, "lng": 6.1755353, "name": "Col du Glandon", "type": "col", "ele": "1924"}, {"lat": 46.897633, "lng": 11.2012914, "name": "Kaindlscharte", "type": "col", "ele": "2690"}, {"lat": 45.0875296, "lng": 6.1490575, "name": "Col de Sarenne", "type": "col", "ele": "1999"}, {"lat": 44.7138856, "lng": 9.7813008, "name": "Bocchetta di Sette Sorelle", "type": "col", "ele": "817"}, {"lat": 44.6798626, "lng": 9.7439378, "name": "Valico di Monte Pelizzone", "type": "col", "ele": "1044"}, {"lat": 47.021702, "lng": 10.70685, "name": "Col", "type": "col", "ele": "2625"}, {"lat": 46.9705306, "lng": 10.6880844, "name": "Halsle", "type": "col", "ele": "2850"}, {"lat": 46.9636413, "lng": 10.6856077, "name": "Tauferer J\u00f6chl", "type": "col", "ele": "2870"}, {"lat": 47.012768, "lng": 10.710127, "name": "Col", "type": "col", "ele": "2799"}, {"lat": 47.0040786, "lng": 10.7095072, "name": "Kuppscharte", "type": "col", "ele": "2644"}, {"lat": 46.9886851, "lng": 10.7081036, "name": "Rifekarscharte", "type": "col", "ele": "2889"}, {"lat": 46.9840772, "lng": 10.6987683, "name": "Col", "type": "col", "ele": "2927"}, {"lat": 46.9235783, "lng": 10.6667733, "name": "Col", "type": "col", "ele": "2994"}, {"lat": 46.930117, "lng": 10.675387, "name": "Plattigj\u00f6chl", "type": "col", "ele": "2999"}, {"lat": 46.9369686, "lng": 10.6811488, "name": "Col", "type": "col", "ele": "3050"}, {"lat": 46.9468472, "lng": 10.6875395, "name": "Col", "type": "col", "ele": "3017"}, {"lat": 47.0132831, "lng": 10.2238354, "name": "D\u00fcrrschartli", "type": "col", "ele": "2666"}, {"lat": 47.2298392, "lng": 10.6068877, "name": "Verborgene Gratscharte", "type": "col", "ele": "2422"}, {"lat": 47.1748665, "lng": 10.3988196, "name": "Flarschjoch", "type": "col", "ele": "2464"}, {"lat": 44.2710307, "lng": 8.2113913, "name": "Colle Baltera", "type": "col", "ele": ""}, {"lat": 47.4239113, "lng": 9.809096, "name": "Losenpass", "type": "col", "ele": "1137"}, {"lat": 46.0371743, "lng": 10.795667, "name": "Passo del Durone", "type": "col", "ele": "1010"}, {"lat": 47.3160826, "lng": 10.2279336, "name": "Rossgundscharte", "type": "col", "ele": "2015"}, {"lat": 45.7283548, "lng": 10.5182985, "name": "Passo del Cavallino della Fobbia", "type": "col", "ele": "1090"}, {"lat": 43.8787563, "lng": 7.4903926, "name": "Col de la Basse Bergevine", "type": "col", "ele": "736"}, {"lat": 43.8632277, "lng": 7.4952498, "name": "Col du Cuore / Passo di Cuore", "type": "col", "ele": "1022"}, {"lat": 43.8450936, "lng": 7.5006043, "name": "Col du Tr\u00e8tore / Passo di Treittore", "type": "col", "ele": "1084"}, {"lat": 46.135275, "lng": 10.7139592, "name": "Bocchetta dell'Acqua Fredda", "type": "col", "ele": "2185"}, {"lat": 43.8934598, "lng": 7.5732623, "name": "Colle dei Saviglioni", "type": "col", "ele": "889"}, {"lat": 43.984977, "lng": 7.6553931, "name": "Pas de l'Incise / Passo dell'Incisa", "type": "col", "ele": "1684"}, {"lat": 43.9740102, "lng": 7.6527873, "name": "Passo di Fonte Dragurina", "type": "col", "ele": "1810"}, {"lat": 44.9906273, "lng": 5.5952228, "name": "Col de l'Arzelier", "type": "col", "ele": "1154"}, {"lat": 45.7521101, "lng": 9.9656871, "name": "Colle di Caf", "type": "col", "ele": "1242"}, {"lat": 45.7550025, "lng": 9.9666218, "name": "Il Colletto", "type": "col", "ele": "1284"}, {"lat": 44.0337862, "lng": 7.6792962, "name": "Baisse de Sanson / Bassa di Sanson", "type": "col", "ele": "1694"}, {"lat": 45.7934059, "lng": 9.7932631, "name": "Passo di Ganda", "type": "col", "ele": "1056"}, {"lat": 47.4784183, "lng": 10.4792712, "name": "Col", "type": "col", "ele": ""}, {"lat": 45.872279, "lng": 6.4648689, "name": "Col des Aravis", "type": "col", "ele": "1487"}, {"lat": 44.0930967, "lng": 11.1107929, "name": "Passo Dell'Alpe di Cavarzano", "type": "col", "ele": "1012"}, {"lat": 47.1645659, "lng": 11.6146455, "name": "Klammjoch", "type": "col", "ele": "2359"}, {"lat": 46.3557414, "lng": 7.001185, "name": "Col du Luissel", "type": "col", "ele": ""}, {"lat": 44.1034102, "lng": 11.1162135, "name": "Passo di San Giuseppe", "type": "col", "ele": "981"}, {"lat": 44.1103865, "lng": 11.0740172, "name": "Passo Balinello", "type": "col", "ele": "1198"}, {"lat": 46.9707464, "lng": 11.7512173, "name": "Schlegeisscharte", "type": "col", "ele": "3082"}, {"lat": 46.9904069, "lng": 11.7932308, "name": "\u00d6stliche M\u00f6selescharte", "type": "col", "ele": "3240"}, {"lat": 46.9926215, "lng": 11.8262216, "name": "Innerjoch - Giogo di Dentro", "type": "col", "ele": "2999"}, {"lat": 47.0020208, "lng": 11.8540121, "name": "Schwarzenbachjoch - Giogo di Rio Nero", "type": "col", "ele": "3062"}, {"lat": 47.0161538, "lng": 11.8875913, "name": "Tribbachsattel", "type": "col", "ele": "3028"}, {"lat": 47.0251154, "lng": 11.9044738, "name": "Floitenjoch", "type": "col", "ele": "3027"}, {"lat": 47.028101, "lng": 11.9110909, "name": "Trippachscharte", "type": "col", "ele": "3182"}, {"lat": 47.0375069, "lng": 11.9327334, "name": "Frankbachjoch - Giogo di Riofranco", "type": "col", "ele": "2760"}, {"lat": 47.0449829, "lng": 11.9717395, "name": "Wollbachjoch", "type": "col", "ele": "2832"}, {"lat": 47.047257, "lng": 12.0148457, "name": "H\u00f6rndljoch - Giogo del Cornetto", "type": "col", "ele": "2553"}, {"lat": 47.0499423, "lng": 12.0277161, "name": "Mitterjoch - Giogo di Mezzo", "type": "col", "ele": "2635"}, {"lat": 47.0612066, "lng": 12.0459853, "name": "Grie\u00dfbachj\u00f6chl - Passo di Gries", "type": "col", "ele": "2904"}, {"lat": 47.403283, "lng": 11.649572, "name": "Kaserjoch", "type": "col", "ele": ""}, {"lat": 47.3401407, "lng": 10.2077864, "name": "Col", "type": "col", "ele": ""}, {"lat": 43.982426, "lng": 7.8697558, "name": "Colle d'Oggia", "type": "col", "ele": "1157"}, {"lat": 45.7110971, "lng": 11.1410893, "name": "Passo Pelagatta", "type": "col", "ele": ""}, {"lat": 45.6869499, "lng": 11.1390034, "name": "Passo Zevola", "type": "col", "ele": "1820"}, {"lat": 44.0877527, "lng": 7.5565764, "name": "Colla Megiana", "type": "col", "ele": "1760"}, {"lat": 46.2624076, "lng": 6.4540026, "name": "Col de Cou", "type": "col", "ele": "1116"}, {"lat": 45.7118669, "lng": 10.2861765, "name": "Cocca di Lodrino", "type": "col", "ele": "735"}, {"lat": 46.2142704, "lng": 11.2189071, "name": "Zise", "type": "col", "ele": "1245"}, {"lat": 47.3135964, "lng": 10.2266347, "name": "Col", "type": "col", "ele": "2056"}, {"lat": 43.7873749, "lng": 6.7342876, "name": "Col Bas", "type": "col", "ele": "1194"}, {"lat": 46.93314, "lng": 11.3155188, "name": "Maurerscharte - Passo del Muro", "type": "col", "ele": "2511"}, {"lat": 46.1978733, "lng": 6.4281246, "name": "Col du Perret", "type": "col", "ele": "963"}, {"lat": 43.9678701, "lng": 7.7316187, "name": "Colle Langan", "type": "col", "ele": "1127"}, {"lat": 46.9173114, "lng": 11.3675649, "name": "Ochsenscharte", "type": "col", "ele": ""}, {"lat": 47.1496847, "lng": 12.1310531, "name": "Ro\u00dfkarscharte", "type": "col", "ele": "2690"}, {"lat": 44.0848413, "lng": 7.7843216, "name": "Colle San Bernardo di Mendatica", "type": "col", "ele": "1263"}, {"lat": 46.2350994, "lng": 6.5200372, "name": "Col de Jambaz", "type": "col", "ele": "1027"}, {"lat": 44.6131693, "lng": 5.5389557, "name": "Col Lorial", "type": "col", "ele": "1277"}, {"lat": 43.9010001, "lng": 7.7278341, "name": "Passo di Ghimbegna", "type": "col", "ele": "898"}, {"lat": 44.0871642, "lng": 11.2291303, "name": "Valico di Citerna", "type": "col", "ele": "781"}, {"lat": 44.524826, "lng": 7.0961211, "name": "Colle San Giovanni", "type": "col", "ele": "1875"}, {"lat": 44.4023917, "lng": 6.9984468, "name": "Passo di Rocca Brancia", "type": "col", "ele": "2620"}, {"lat": 44.1919296, "lng": 7.1919827, "name": "Baisse de Druos / Bassa del Druos", "type": "col", "ele": "2628"}, {"lat": 44.8945344, "lng": 6.3580331, "name": "Col de Coste Rouge", "type": "col", "ele": "3192"}, {"lat": 45.5965687, "lng": 6.0601151, "name": "Col des Pr\u00e9s", "type": "col", "ele": "1134"}, {"lat": 44.7371539, "lng": 6.3537809, "name": "Col de Freissini\u00e8res ou d'Orci\u00e8res", "type": "col", "ele": "2782"}, {"lat": 46.0051924, "lng": 6.346127, "name": "Pas de la Truie", "type": "col", "ele": "1693"}, {"lat": 45.9988578, "lng": 6.5673044, "name": "La Gueule \u00e0 Vent", "type": "col", "ele": "2014"}, {"lat": 46.03183, "lng": 6.4220569, "name": "Col de Solaison", "type": "col", "ele": "1507"}, {"lat": 45.9176012, "lng": 5.7672176, "name": "Col de Charbem\u00e8nes", "type": "col", "ele": "1317"}, {"lat": 45.6704603, "lng": 11.3262091, "name": "Passo del Mucchione", "type": "col", "ele": "635"}, {"lat": 45.6839681, "lng": 11.3097585, "name": "Passo Zovo", "type": "col", "ele": "631"}, {"lat": 45.8418065, "lng": 5.6656249, "name": "Pas de l'\u00c2ne", "type": "col", "ele": ""}, {"lat": 46.6808438, "lng": 9.8844337, "name": "Sertigpass", "type": "col", "ele": "2739"}, {"lat": 47.1745711, "lng": 10.1001764, "name": "Stierlochjoch", "type": "col", "ele": "2009"}, {"lat": 46.552711, "lng": 10.253082, "name": "Passo di Fraele", "type": "col", "ele": "1952"}, {"lat": 45.8896197, "lng": 6.1932905, "name": "Col des Contrebandiers", "type": "col", "ele": "1054"}, {"lat": 46.2019566, "lng": 7.4939292, "name": "Col de Cou", "type": "col", "ele": "2528"}, {"lat": 43.4442304, "lng": 12.9306608, "name": "Col", "type": "col", "ele": "529"}, {"lat": 44.2492061, "lng": 6.3705285, "name": "Col du Labouret", "type": "col", "ele": "1240"}, {"lat": 45.2939992, "lng": 6.7084723, "name": "Col de Rosoire", "type": "col", "ele": "3023"}, {"lat": 45.8181407, "lng": 11.1670604, "name": "Sella delle Pozze", "type": "col", "ele": "1903"}, {"lat": 45.2780938, "lng": 6.1329887, "name": "Col du T\u00e9pey", "type": "col", "ele": "2716"}, {"lat": 46.7229142, "lng": 11.9689203, "name": "Ju de Fur\u0107ia - Furkelpass - Passo Furcia", "type": "col", "ele": "1789"}, {"lat": 44.6797604, "lng": 7.0702381, "name": "Col de Valante / Passo di Vallanta", "type": "col", "ele": "2811"}, {"lat": 44.6762044, "lng": 7.0588939, "name": "Passo della Losetta", "type": "col", "ele": "2872"}, {"lat": 44.202669, "lng": 7.1500964, "name": "Col de la Lombarde / Colle della Lombarda", "type": "col", "ele": "2351"}, {"lat": 43.9701197, "lng": 7.6401135, "name": "Col du Corbeau / Gola del Corvo", "type": "col", "ele": "1404"}, {"lat": 43.9530432, "lng": 7.611548, "name": "Colle Scarassan", "type": "col", "ele": "1226"}, {"lat": 43.9554153, "lng": 7.5893061, "name": "Col de Peigairole", "type": "col", "ele": ""}, {"lat": 45.2719935, "lng": 6.1326111, "name": "Passage Brabant", "type": "col", "ele": "2714"}, {"lat": 45.2486495, "lng": 6.1000006, "name": "Col du Mouchillon", "type": "col", "ele": "2467"}, {"lat": 44.8196595, "lng": 6.734975, "name": "Col d'Izoard", "type": "col", "ele": "2361"}, {"lat": 45.4610135, "lng": 7.0981718, "name": "Col de la Galise / Colle Galisia", "type": "col", "ele": "2987"}, {"lat": 45.3621563, "lng": 6.6213219, "name": "Col du Fruit", "type": "col", "ele": "2516"}, {"lat": 45.5481689, "lng": 6.8204635, "name": "Col de la Chal", "type": "col", "ele": "2457"}, {"lat": 45.3933945, "lng": 7.0068547, "name": "Col des Fours", "type": "col", "ele": "2976"}, {"lat": 45.3586132, "lng": 6.7275537, "name": "Col", "type": "col", "ele": ""}, {"lat": 45.2555964, "lng": 6.6900622, "name": "Col de la Masse", "type": "col", "ele": "2922"}, {"lat": 45.3901186, "lng": 6.7950589, "name": "Col de la Vanoise", "type": "col", "ele": "2522"}, {"lat": 45.2366324, "lng": 6.7152336, "name": "Col du Barbier", "type": "col", "ele": "2295"}, {"lat": 45.4027656, "lng": 6.7395096, "name": "Col de Leschaux", "type": "col", "ele": "2564"}, {"lat": 45.484531, "lng": 6.8689908, "name": "Col de la Sachette", "type": "col", "ele": "2713"}, {"lat": 45.3186964, "lng": 6.6534778, "name": "Col Rouge", "type": "col", "ele": "2731"}, {"lat": 45.303239, "lng": 6.1278537, "name": "Col", "type": "col", "ele": "2537"}, {"lat": 45.9672396, "lng": 7.3901183, "name": "Col de la Lire Rose", "type": "col", "ele": "3115"}, {"lat": 46.7084006, "lng": 8.7289778, "name": "Mittelplattten", "type": "col", "ele": "2484"}, {"lat": 46.5948614, "lng": 8.6805779, "name": "Pass Maighels", "type": "col", "ele": "2420"}, {"lat": 46.5797743, "lng": 8.6832448, "name": "Passo Bornengo", "type": "col", "ele": "2630"}, {"lat": 46.57521, "lng": 8.62689, "name": "Rotstock L\u00fccke", "type": "col", "ele": "2785"}, {"lat": 44.4397396, "lng": 8.6365457, "name": "Passo Pian di Lerca", "type": "col", "ele": "1034"}, {"lat": 43.983531, "lng": 7.5013986, "name": "Baisse de Colla Bassa", "type": "col", "ele": "1350"}, {"lat": 43.4261921, "lng": 6.8425339, "name": "Col des Ferri\u00e8res", "type": "col", "ele": "105"}, {"lat": 45.7312334, "lng": 6.7239386, "name": "Col des Fours", "type": "col", "ele": "2665"}, {"lat": 46.1084593, "lng": 6.8234414, "name": "Col des Chambres", "type": "col", "ele": "2338"}, {"lat": 46.3439127, "lng": 6.7280175, "name": "Col de la Case d'Oche", "type": "col", "ele": "1812"}, {"lat": 43.7706154, "lng": 10.4507417, "name": "Passo di Dante", "type": "col", "ele": "215"}, {"lat": 47.4567926, "lng": 11.4119317, "name": "Col", "type": "col", "ele": ""}, {"lat": 46.268529, "lng": 6.492149, "name": "Col des Arces", "type": "col", "ele": "1164"}, {"lat": 46.8883145, "lng": 8.4767004, "name": "Sinsg\u00e4uer Schonegg", "type": "col", "ele": "1917"}, {"lat": 47.4560446, "lng": 9.0040401, "name": "Hochwacht Roset", "type": "col", "ele": "638"}, {"lat": 45.6062519, "lng": 6.5896748, "name": "Col de la Grande Combe", "type": "col", "ele": "2362"}, {"lat": 45.8758914, "lng": 7.8682554, "name": "Passo dei Salati", "type": "col", "ele": "2980"}, {"lat": 43.9796467, "lng": 12.1396984, "name": "Passo Ciola", "type": "col", "ele": "580"}, {"lat": 45.898509, "lng": 10.9833866, "name": "Bivio dei Laresi", "type": "col", "ele": "1277"}, {"lat": 45.4099731, "lng": 5.9230862, "name": "Pas de La Rousse", "type": "col", "ele": "1820"}, {"lat": 46.0068889, "lng": 7.2799363, "name": "Col des Avouillons", "type": "col", "ele": "2649"}, {"lat": 44.5210047, "lng": 9.4181076, "name": "Sella di Villanoce", "type": "col", "ele": "950"}, {"lat": 46.6076856, "lng": 9.864594, "name": "Fuorcla Pischa", "type": "col", "ele": "2871"}, {"lat": 44.5359135, "lng": 9.5011637, "name": "Passo del Tomarlo", "type": "col", "ele": "1482"}, {"lat": 45.1437735, "lng": 6.3277713, "name": "Basse de Gerbier", "type": "col", "ele": "2560"}, {"lat": 45.1181845, "lng": 6.3308922, "name": "Col Lombard", "type": "col", "ele": "3092"}, {"lat": 45.0038971, "lng": 6.3168557, "name": "Br\u00e8che Joseph Turc", "type": "col", "ele": "3845"}, {"lat": 45.0048364, "lng": 6.3093152, "name": "Br\u00e8che Zsigmondy", "type": "col", "ele": "3925"}, {"lat": 45.004033, "lng": 6.2994399, "name": "Br\u00e8che de la Meije", "type": "col", "ele": "3357"}, {"lat": 47.0857991, "lng": 12.8726, "name": "Wei\u00dfenbachscharte", "type": "col", "ele": "2645"}, {"lat": 44.5270182, "lng": 7.1040275, "name": "Colle della Cavallina", "type": "col", "ele": "1940"}, {"lat": 44.2351112, "lng": 11.5947273, "name": "Passo del CORSO", "type": "col", "ele": "532"}, {"lat": 45.4899281, "lng": 6.2481105, "name": "Col du Grand Cucheron", "type": "col", "ele": "1183"}, {"lat": 46.9620652, "lng": 11.51496, "name": "Schl\u00fcsseljoch - Passo della Chiave", "type": "col", "ele": "2212"}, {"lat": 44.8847313, "lng": 6.2595891, "name": "Col du Vallon des Etages", "type": "col", "ele": "3170"}, {"lat": 44.3845674, "lng": 9.2421016, "name": "Passo della Crocetta", "type": "col", "ele": "599"}, {"lat": 46.1252163, "lng": 10.6195141, "name": "Passo dei Pozzoni", "type": "col", "ele": "2814"}, {"lat": 46.1498525, "lng": 10.6680549, "name": "Passo dell'Om di L\u00e0res", "type": "col", "ele": "2159"}, {"lat": 44.3805847, "lng": 10.0579593, "name": "Sella di Rocca Pumacciolo", "type": "col", "ele": "1613"}, {"lat": 44.4066487, "lng": 9.9909395, "name": "Bocchetta dell'Orsaro", "type": "col", "ele": "1693"}, {"lat": 44.3945117, "lng": 10.0016393, "name": "Sella del Marmagna", "type": "col", "ele": "1731"}, {"lat": 44.386512, "lng": 10.016753, "name": "Passo delle Guadine", "type": "col", "ele": "1681"}, {"lat": 44.3779592, "lng": 10.0374391, "name": "Passo di Badignana", "type": "col", "ele": "1686"}, {"lat": 44.3603886, "lng": 10.0730008, "name": "Passo Compione", "type": "col", "ele": "1794"}, {"lat": 44.3549786, "lng": 10.0860343, "name": "Passo Giovarello", "type": "col", "ele": "1762"}, {"lat": 44.3333386, "lng": 10.1500611, "name": "Foce di Torsana", "type": "col", "ele": "1339"}, {"lat": 44.955256, "lng": 6.3866476, "name": "Col Emile Pic", "type": "col", "ele": "3483"}, {"lat": 44.8604494, "lng": 6.3872214, "name": "Col du Riou Blanc", "type": "col", "ele": "3303"}, {"lat": 44.866943, "lng": 6.1980323, "name": "Br\u00e8che de l'Olan", "type": "col", "ele": "2962"}, {"lat": 46.9252176, "lng": 10.5396058, "name": "Saderer Joch", "type": "col", "ele": "2397"}, {"lat": 47.1547894, "lng": 13.1662239, "name": "Tofernscharte", "type": "col", "ele": "2091"}, {"lat": 45.552551, "lng": 6.3888841, "name": "Col de Basmont", "type": "col", "ele": "1791"}, {"lat": 45.663082, "lng": 6.4936262, "name": "Col des Lacs", "type": "col", "ele": "2234"}, {"lat": 45.6997251, "lng": 6.4213188, "name": "Col de Montessuit", "type": "col", "ele": "640"}, {"lat": 45.655596, "lng": 6.5180124, "name": "Col de la B\u00e2thie", "type": "col", "ele": "1889"}, {"lat": 44.279146, "lng": 8.096348, "name": "Colle dei Giovetti", "type": "col", "ele": "913"}, {"lat": 44.2161375, "lng": 7.9455756, "name": "Colla di Casotto", "type": "col", "ele": "1381"}, {"lat": 44.0070935, "lng": 7.9909455, "name": "Passo del Ginestro", "type": "col", "ele": "677"}, {"lat": 47.4690583, "lng": 7.9425689, "name": "Rothenfluh Passh\u00f6he", "type": "col", "ele": "471"}, {"lat": 46.0295628, "lng": 7.6400043, "name": "Col Durand", "type": "col", "ele": "3474"}, {"lat": 45.3372376, "lng": 5.7122693, "name": "Col de la Sure", "type": "col", "ele": "1676"}, {"lat": 46.4422051, "lng": 10.8219436, "name": "Passo di Rabbi - Rabbijoch", "type": "col", "ele": "2467"}, {"lat": 44.415258, "lng": 9.4433967, "name": "Passo del Bocco", "type": "col", "ele": "956"}, {"lat": 46.0818001, "lng": 8.0292784, "name": "Sonnigpass / Bocchetta di Bottarello", "type": "col", "ele": "3147"}, {"lat": 44.5474823, "lng": 6.933899, "name": "Colle di Bellino", "type": "col", "ele": "2804"}, {"lat": 44.5489739, "lng": 10.0375305, "name": "Sella di Casaselvatica", "type": "col", "ele": "835"}, {"lat": 45.8284391, "lng": 10.7152634, "name": "Bocca di Fobia", "type": "col", "ele": "1286"}, {"lat": 45.8339957, "lng": 10.7902233, "name": "Passo Guil", "type": "col", "ele": "1209"}, {"lat": 44.4278134, "lng": 10.1148569, "name": "Passo del Ticchiano", "type": "col", "ele": "1154"}, {"lat": 44.3155842, "lng": 10.0531818, "name": "Valico di Collesino", "type": "col", "ele": "775"}, {"lat": 46.1272826, "lng": 12.4934529, "name": "Forcella Palantina", "type": "col", "ele": "2063"}, {"lat": 46.2185304, "lng": 12.6606297, "name": "Forcella Capra / Forcja Cjavra", "type": "col", "ele": "1824"}, {"lat": 46.2293063, "lng": 12.6807383, "name": "Forcella Racli", "type": "col", "ele": "1592"}, {"lat": 44.3385198, "lng": 9.8142522, "name": "Passo Mistadella", "type": "col", "ele": "1034"}, {"lat": 44.3362852, "lng": 9.7908801, "name": "Foce Bertagna", "type": "col", "ele": "867"}, {"lat": 44.3546296, "lng": 9.733974, "name": "Passo Calzavitello", "type": "col", "ele": "850"}, {"lat": 44.3286987, "lng": 9.7334322, "name": "Foce di Rastello", "type": "col", "ele": "1047"}, {"lat": 46.2326355, "lng": 12.6218221, "name": "Forcella Navalesc", "type": "col", "ele": "1525"}, {"lat": 46.2431381, "lng": 12.6065687, "name": "Forcella Giaveid", "type": "col", "ele": "1476"}, {"lat": 46.1776526, "lng": 12.4874151, "name": "Forca di Sass", "type": "col", "ele": "1200"}, {"lat": 46.4884694, "lng": 12.6529276, "name": "Forcella Rioda", "type": "col", "ele": "1943"}, {"lat": 46.4746668, "lng": 13.1480413, "name": "Forca Nuviernulis / Forcje Nuviernulis", "type": "col", "ele": "1732"}, {"lat": 46.371975, "lng": 13.4240194, "name": "Sella Grubia", "type": "col", "ele": "2050"}, {"lat": 46.2593692, "lng": 12.6042201, "name": "Forcella Clautana", "type": "col", "ele": "1432"}, {"lat": 46.4161697, "lng": 12.6992734, "name": "Forca di Montof", "type": "col", "ele": "1822"}, {"lat": 46.4340269, "lng": 12.7581509, "name": "Forchia grande", "type": "col", "ele": "1739"}, {"lat": 46.596502, "lng": 13.0359013, "name": "Passo Promosio / Kronhof T\u00f6rl", "type": "col", "ele": "1792"}, {"lat": 46.482476, "lng": 13.3479836, "name": "Sella di Monte Piccolo", "type": "col", "ele": "1702"}, {"lat": 46.4183623, "lng": 13.4808008, "name": "Forcella Lavinal dell'Orso", "type": "col", "ele": "2123"}, {"lat": 46.424939, "lng": 13.4908375, "name": "Forcella Mos\u00e8", "type": "col", "ele": "2271"}, {"lat": 46.4665168, "lng": 13.1592307, "name": "Forcella del Portonat", "type": "col", "ele": "1860"}, {"lat": 46.4593147, "lng": 12.6169413, "name": "Forcella della Croce di Tragonia", "type": "col", "ele": "1973"}, {"lat": 46.4456449, "lng": 12.6107918, "name": "Forcella Forada", "type": "col", "ele": "2006"}, {"lat": 46.4405836, "lng": 12.6378008, "name": "Forcella del Bivera", "type": "col", "ele": "2332"}, {"lat": 46.4904303, "lng": 12.7310641, "name": "Forcella Ielma", "type": "col", "ele": "1902"}, {"lat": 46.5505993, "lng": 12.768708, "name": "Passo di Entralais", "type": "col", "ele": "2190"}, {"lat": 46.5403731, "lng": 12.6993764, "name": "Passo Siera", "type": "col", "ele": "1592"}, {"lat": 46.5416969, "lng": 12.7243247, "name": "Forcella Creta Forata", "type": "col", "ele": "2099"}, {"lat": 46.4313895, "lng": 12.5001972, "name": "Forca del Cridola", "type": "col", "ele": "2172"}, {"lat": 46.3237187, "lng": 12.4051044, "name": "Forcella del Duranno", "type": "col", "ele": "2219"}, {"lat": 46.4007207, "lng": 12.4844495, "name": "Forcella Cimoliana", "type": "col", "ele": "2182"}, {"lat": 46.4160997, "lng": 12.5046734, "name": "Forcella dal Cason", "type": "col", "ele": "2228"}, {"lat": 46.3684005, "lng": 12.5569691, "name": "Forcella la Sidon bassa", "type": "col", "ele": "2220"}, {"lat": 46.4034023, "lng": 12.5486886, "name": "Passo Lavinal", "type": "col", "ele": "1968"}, {"lat": 46.3716006, "lng": 12.5604851, "name": "Passo di Suola", "type": "col", "ele": "2000"}, {"lat": 46.3919395, "lng": 12.5439963, "name": "Forcella Val di Brica", "type": "col", "ele": "2088"}, {"lat": 46.3536436, "lng": 12.4865247, "name": "Forcella della Lama", "type": "col", "ele": "1934"}, {"lat": 46.2857554, "lng": 12.3403927, "name": "Forcella Salta", "type": "col", "ele": "2002"}, {"lat": 46.370241, "lng": 12.5989718, "name": "Passo di Chiavalli", "type": "col", "ele": "1835"}, {"lat": 46.3679457, "lng": 12.5850833, "name": "Forcella Sarodine", "type": "col", "ele": "1810"}, {"lat": 46.3603556, "lng": 12.6204542, "name": "Forcella Lareseit", "type": "col", "ele": "1750"}, {"lat": 46.4859864, "lng": 7.6333584, "name": "Alpschelengrat", "type": "col", "ele": ""}, {"lat": 46.3190912, "lng": 12.4042821, "name": "Il Portellin", "type": "col", "ele": "2250"}, {"lat": 43.5364193, "lng": 5.570805, "name": "Pas de l'Escalette", "type": "col", "ele": ""}, {"lat": 43.5330458, "lng": 5.5711151, "name": "Pas du Berger", "type": "col", "ele": "600"}, {"lat": 46.3366623, "lng": 12.7288094, "name": "Forca del Mugnol", "type": "col", "ele": "1553"}, {"lat": 46.2985236, "lng": 12.4762569, "name": "Forcella Vacalizza", "type": "col", "ele": "1855"}, {"lat": 46.3298945, "lng": 12.3927063, "name": "Forcella della Spalla", "type": "col", "ele": "2133"}, {"lat": 46.3978195, "lng": 12.4764706, "name": "Forcella Giumelli", "type": "col", "ele": "2260"}, {"lat": 46.348867, "lng": 12.4239508, "name": "Forcella Val de Drap", "type": "col", "ele": "2284"}, {"lat": 46.575612, "lng": 13.1864536, "name": "Sella di Val Dolce / Rattendorfer Sattel", "type": "col", "ele": "1781"}, {"lat": 46.5886971, "lng": 13.1570798, "name": "Sella di Cordin / Kordin Sattel", "type": "col", "ele": "1776"}, {"lat": 46.4244414, "lng": 13.1737836, "name": "Forca di Monticello / Forcje Montusel", "type": "col", "ele": "915"}, {"lat": 46.4721482, "lng": 13.2442182, "name": "Forcella della Pecora", "type": "col", "ele": "1824"}, {"lat": 46.4624532, "lng": 13.2124918, "name": "Forcella Vualt", "type": "col", "ele": "1282"}, {"lat": 46.5451739, "lng": 13.27037, "name": "Sella della Pridola", "type": "col", "ele": "1662"}, {"lat": 46.552206, "lng": 13.2287492, "name": "Forcje dai Claps", "type": "col", "ele": "1990"}, {"lat": 46.5047281, "lng": 13.1721899, "name": "Forca Griffon", "type": "col", "ele": "1248"}, {"lat": 46.4968855, "lng": 13.1658387, "name": "Forca Zouf di Fau", "type": "col", "ele": "1392"}, {"lat": 46.4813343, "lng": 13.1510896, "name": "Foran da la Gjialine", "type": "col", "ele": "1551"}, {"lat": 46.5548687, "lng": 13.1675197, "name": "Forca di Lanza", "type": "col", "ele": "1832"}, {"lat": 46.5659799, "lng": 13.1709748, "name": "Passo del Cason di Lanza / Lanzenpass / Pas di Lance", "type": "col", "ele": "1555"}, {"lat": 46.5412191, "lng": 13.3185949, "name": "Sella di Barizze", "type": "col", "ele": "1477"}, {"lat": 46.5524646, "lng": 13.3151951, "name": "Sella Carnizza / Garnitzensattel", "type": "col", "ele": "1673"}, {"lat": 46.5588119, "lng": 13.4231575, "name": "Kesselwaldsattel / Sella della Caldiera", "type": "col", "ele": "1477"}, {"lat": 46.4666447, "lng": 13.3227458, "name": "Forcella Mincigos", "type": "col", "ele": "1487"}, {"lat": 44.7285569, "lng": 9.524219, "name": "Passo Cappelletta", "type": "col", "ele": "1036"}, {"lat": 46.4756802, "lng": 13.4272476, "name": "Forchia di Cjanalot / Forcje Cjanalot", "type": "col", "ele": "1814"}, {"lat": 46.4990989, "lng": 13.4698224, "name": "Forcella Nebria", "type": "col", "ele": "941"}, {"lat": 46.436309, "lng": 13.4926363, "name": "Sella Nabois", "type": "col", "ele": "1970"}, {"lat": 46.3733958, "lng": 13.4534418, "name": "Sella Bila Pec", "type": "col", "ele": "2005"}, {"lat": 46.3671528, "lng": 13.4807226, "name": "Prevala", "type": "col", "ele": "2067"}, {"lat": 46.3829887, "lng": 13.4117394, "name": "Sella Blasic", "type": "col", "ele": ""}, {"lat": 46.3300474, "lng": 13.3888425, "name": "Passo Pradolina", "type": "col", "ele": "1335"}, {"lat": 46.3583475, "lng": 12.8137682, "name": "Forca Sopareit", "type": "col", "ele": "1411"}, {"lat": 46.3234918, "lng": 12.9733177, "name": "Forchia Armentaria", "type": "col", "ele": "793"}, {"lat": 46.2504564, "lng": 12.4263911, "name": "Forcella Ferron", "type": "col", "ele": "993"}, {"lat": 46.2424935, "lng": 12.3857496, "name": "Forcella Col de Pin", "type": "col", "ele": "1436"}, {"lat": 46.2230648, "lng": 12.3772106, "name": "Forcella del Ciot", "type": "col", "ele": "1510"}, {"lat": 46.2304237, "lng": 12.3589265, "name": "Forcella Malbarc", "type": "col", "ele": "1409"}, {"lat": 46.2341954, "lng": 12.3549551, "name": "Forcella Agre", "type": "col", "ele": "1576"}, {"lat": 44.2131927, "lng": 11.7130051, "name": "Valico della Valletta", "type": "col", "ele": "406"}, {"lat": 44.4523827, "lng": 6.9710191, "name": "Colle Ciarbonet", "type": "col", "ele": "2206"}, {"lat": 43.8780684, "lng": 11.864973, "name": "Passo del Vinco", "type": "col", "ele": "926"}, {"lat": 44.4489479, "lng": 7.1327798, "name": "Colle Intersile sud m.2077", "type": "col", "ele": "2077"}, {"lat": 44.4265154, "lng": 7.1693934, "name": "Basse di Narbona", "type": "col", "ele": "2230"}, {"lat": 44.3693426, "lng": 7.0429465, "name": "Colle Vallonetto", "type": "col", "ele": "2530"}, {"lat": 45.383265, "lng": 8.0085482, "name": "Bocca d'Arbaro", "type": "col", "ele": "350"}, {"lat": 45.9022213, "lng": 9.4939169, "name": "Passo Culmine di San Pietro", "type": "col", "ele": "1258"}, {"lat": 47.0296057, "lng": 9.5281921, "name": "Sankt Luzisteig", "type": "col", "ele": "713"}, {"lat": 44.712244, "lng": 6.140314, "name": "Col de l'Escalier", "type": "col", "ele": "2164"}, {"lat": 44.8400058, "lng": 5.542159, "name": "Col de l'Aupet", "type": "col", "ele": "1650"}, {"lat": 46.1824449, "lng": 6.627715, "name": "Col de la Basse", "type": "col", "ele": "1636"}, {"lat": 46.3115666, "lng": 6.7599485, "name": "Col d'Ubine", "type": "col", "ele": "1694"}, {"lat": 46.3256087, "lng": 6.7744389, "name": "Pas de la Bosse", "type": "col", "ele": "1816"}, {"lat": 46.3455488, "lng": 6.7603386, "name": "Col de Bise", "type": "col", "ele": "1915"}, {"lat": 46.1593242, "lng": 6.5806587, "name": "Col de la Ramaz", "type": "col", "ele": "1619"}, {"lat": 45.8245664, "lng": 10.8936261, "name": "Sella Sud del Monte Varagna", "type": "col", "ele": "1735"}, {"lat": 45.8708891, "lng": 10.7186289, "name": "Bochet de la Spinera", "type": "col", "ele": "1320"}, {"lat": 46.9696344, "lng": 11.1431114, "name": "Pfaffenjoch", "type": "col", "ele": "3206.6"}, {"lat": 44.1779494, "lng": 7.3201838, "name": "Passo del Porco", "type": "col", "ele": "2580"}, {"lat": 44.0301864, "lng": 11.641241, "name": "Passo dell'Eremo", "type": "col", "ele": "921"}, {"lat": 45.0274571, "lng": 6.6715264, "name": "Colletto del Gui", "type": "col", "ele": "2250"}, {"lat": 45.0297708, "lng": 6.6817703, "name": "Col", "type": "col", "ele": "2252"}, {"lat": 45.0273448, "lng": 6.7044684, "name": "Passo della Mulattiera", "type": "col", "ele": "2412"}, {"lat": 44.017246, "lng": 11.6565766, "name": "Passo della Peschiera", "type": "col", "ele": "925"}, {"lat": 44.6838851, "lng": 6.9795875, "name": "Col Agnel / Colle dell'Agnello", "type": "col", "ele": "2744"}, {"lat": 44.4597761, "lng": 7.2408969, "name": "Colle Santa Margherita", "type": "col", "ele": ""}, {"lat": 44.5411604, "lng": 7.2335531, "name": "Colle Birrone", "type": "col", "ele": "1700"}, {"lat": 46.180724, "lng": 11.1653974, "name": "Croce delle Serre", "type": "col", "ele": "820"}, {"lat": 47.3227782, "lng": 11.4097276, "name": "Mandlscharte", "type": "col", "ele": "2280"}, {"lat": 44.1376221, "lng": 7.2355764, "name": "Col de Sal\u00e8se", "type": "col", "ele": "2031"}, {"lat": 44.076414, "lng": 7.3361954, "name": "Baisse de F\u00e9risson", "type": "col", "ele": "2255"}, {"lat": 43.9021615, "lng": 7.2244543, "name": "Col d'Ambellarte", "type": "col", "ele": "965"}, {"lat": 47.1395836, "lng": 11.276037, "name": "Schlicker Schartl", "type": "col", "ele": "2440"}, {"lat": 44.2193196, "lng": 7.1044005, "name": "Pas de Sainte-Anne / Passo Sant'Anna", "type": "col", "ele": "2308"}, {"lat": 44.2217251, "lng": 7.0909551, "name": "Col du Lausfer", "type": "col", "ele": "2430"}, {"lat": 44.2304346, "lng": 7.0807225, "name": "Col du Saboul\u00e9 / Colle Saboul\u00e8", "type": "col", "ele": "2460"}, {"lat": 44.1774906, "lng": 7.1842873, "name": "Col Merci\u00e8re", "type": "col", "ele": "2342"}, {"lat": 44.2900268, "lng": 6.7845392, "name": "Col de Cime Plate", "type": "col", "ele": "2728"}, {"lat": 43.9184505, "lng": 6.8324118, "name": "Col du Tr\u00e9buchet", "type": "col", "ele": "1143"}, {"lat": 47.426289, "lng": 10.3314596, "name": "Col", "type": "col", "ele": "1836"}, {"lat": 47.4416224, "lng": 10.3264278, "name": "S\u00fcdliches Falkenjoch", "type": "col", "ele": "1668"}, {"lat": 46.4217732, "lng": 6.997642, "name": "Col de Chaude", "type": "col", "ele": "1621"}, {"lat": 43.8388266, "lng": 7.273811, "name": "Col de Rosa", "type": "col", "ele": "916"}, {"lat": 43.8705516, "lng": 7.2653163, "name": "Col du Dragon", "type": "col", "ele": "1111"}, {"lat": 45.8565799, "lng": 10.820349, "name": "Bocca da L\u00e8", "type": "col", "ele": "800"}, {"lat": 45.9488962, "lng": 10.4368646, "name": "Passo della Vacca", "type": "col", "ele": "2361"}, {"lat": 45.9400141, "lng": 10.4157678, "name": "Passo di Val Fredda", "type": "col", "ele": "2338"}, {"lat": 43.8712423, "lng": 7.2595233, "name": "Col de Fuont Blanca", "type": "col", "ele": "1079"}, {"lat": 44.5452017, "lng": 9.7325661, "name": "Passo Santa Donna", "type": "col", "ele": "902"}, {"lat": 46.4723863, "lng": 6.9778773, "name": "Col de la Pierra-Perchia", "type": "col", "ele": "1859"}, {"lat": 45.9056842, "lng": 9.4841407, "name": "Bocchetta di Ferrera", "type": "col", "ele": "1238"}, {"lat": 45.9895703, "lng": 9.1505279, "name": "Passo di Boffalora", "type": "col", "ele": "1221"}, {"lat": 46.06803, "lng": 9.0784136, "name": "Bocchetta di San Bernardo", "type": "col", "ele": "1586"}, {"lat": 45.8748474, "lng": 9.086955, "name": "Colma del Bugone", "type": "col", "ele": "1110"}, {"lat": 45.8963823, "lng": 9.1033905, "name": "Sella del Mortirolo", "type": "col", "ele": "1282"},